end_station,station_name,go_live_date,region,status,end_count,end_lat,end_lon,monday_count,tuesday_count,wednesday_count,thursday_count,friday_count,saturday_count,sunday_count,time_range_0_count,time_range_3_count,time_range_6_count,time_range_9_count,time_range_12_count,time_range_15_count,time_range_18_count,time_range_21_count,end_count_q2_2019,end_count_q1_2019,end_count_q4_2018,end_count_q3_2018,end_count_q2_2018,end_count_q1_2018,end_count_q4_2017,end_count_q3_2017,end_count_q2_2017,end_count_q1_2017,end_count_q3_2016,start_count_q4_2016
3000,Virtual Station,7/7/2016,N/A,Active,1324,0,0,216,197,163,173,164,170,241,14,15,182,375,353,179,148,58,886,961,1070,1838,1156,1059,1440,740,757,564,486,#N/A
3005,7th & Flower,7/7/2016,DTLA,Active,4649,34.0485,-118.258537,762,762,743,714,721,491,456,84,38,605,581,902,953,1010,476,2948,3105,3761,4068,3181,2341,2946,3053,2806,1632,2226,2404
3006,Olive & 8th,7/7/2016,DTLA,Active,2312,34.04554,-118.256668,353,332,314,290,339,351,333,54,12,64,258,533,464,627,300,1373,1552,1587,1649,1319,1057,1129,1182,1037,587,861,1378
3007,5th & Grand,7/7/2016,DTLA,Active,1434,34.05048,-118.254593,232,277,227,249,207,146,96,4,46,220,299,324,253,191,97,914,790,1154,1291,968,771,808,1024,889,535,612,846
3008,Figueroa & 9th,7/7/2016,DTLA,Active,1033,34.046612,-118.262733,142,178,153,148,150,115,147,17,15,145,136,183,178,250,109,692,893,1364,1603,1098,787,918,997,919,553,736,953
3010,11th & Maple,7/10/2016,DTLA,Active,203,34.037048,-118.254868,31,31,27,27,28,28,31,1,1,28,43,53,49,20,8,200,221,278,325,188,143,118,187,245,74,141,197
3011,Figueroa & Pico,7/12/2016,DTLA,Active,764,34.04113,-118.267982,124,104,109,94,104,99,130,12,12,68,122,151,164,154,81,484,618,777,902,768,629,743,756,696,425,550,516
3013,Anaheim & Avalon,7/31/2017,Port of LA,Inactive,34,33.779819,-118.263023,5,2,4,9,2,3,9,1,1,1,1,8,5,14,3,57,14,19,26,24,22,15,85,#N/A,#N/A,#N/A,#N/A
3014,Union Station West Portal,7/7/2016,DTLA,Active,3496,34.05661,-118.237213,590,684,698,676,562,137,149,24,41,206,158,409,2244,344,70,2892,2563,2972,2698,2349,1827,1848,2051,2175,1284,1700,2401
3016,Los Angeles & Temple,7/7/2016,DTLA,Active,1061,34.052898,-118.241562,179,210,210,201,192,31,38,4,74,397,145,181,155,97,8,804,619,569,540,491,280,266,435,471,314,650,942
3018,Grand & Olympic,7/7/2016,DTLA,Active,1053,34.043732,-118.260139,163,154,188,139,162,101,146,33,8,54,130,153,196,320,159,927,1001,1168,863,615,602,528,922,654,413,386,603
3019,12th & Hill,7/7/2016,DTLA,Active,1126,34.038609,-118.260857,215,203,186,217,164,69,72,18,4,322,151,243,160,179,49,832,722,1120,1209,822,580,611,675,845,535,657,983
3020,Hill & Washington,7/7/2016,DTLA,Active,207,34.031052,-118.26709,43,47,30,29,28,19,11,1,1,79,17,35,35,26,13,138,136,226,157,186,163,116,185,171,120,243,241
3022,3rd & Santa Fe,7/7/2016,DTLA,Active,945,34.04607,-118.233093,171,138,131,148,134,124,99,12,11,145,118,192,189,182,96,892,953,1343,1457,1207,1235,1348,1423,1338,1193,1421,1723
3023,1st & Judge John Aiso,7/7/2016,DTLA,Active,798,34.050911,-118.240967,116,123,104,160,132,76,87,8,9,126,105,127,185,177,61,755,751,863,1025,941,619,643,549,842,681,811,1003
3024,Hope & 1st,7/13/2016,DTLA,Active,318,34.05772,-118.24897,63,57,57,47,47,18,29,8,4,108,51,56,44,34,13,142,66,143,156,124,86,172,205,167,89,153,518
3025,Grand & Washington,7/7/2016,DTLA,Active,192,34.03286,-118.268082,25,25,24,36,35,28,19,8,3,15,31,39,40,29,27,149,153,243,173,191,155,215,258,247,195,256,262
3026,Figueroa & Cesar Chavez,7/7/2016,DTLA,Active,731,34.063179,-118.24588,113,129,117,119,97,77,79,38,9,31,28,108,170,206,141,550,384,548,533,418,347,422,473,478,277,433,502
3027,Spring & 3rd,7/7/2016,DTLA,Active,1103,34.04998,-118.247162,191,185,176,185,195,86,85,31,31,297,131,242,116,178,77,1005,741,803,783,748,646,645,682,675,465,631,765
3028,Grand & Temple,7/7/2016,DTLA,Active,259,34.058319,-118.246094,27,34,35,46,37,51,29,11,9,21,24,41,55,74,24,202,76,210,272,188,165,169,180,249,109,141,271
3029,Main & 4th,7/7/2016,DTLA,Active,837,34.048851,-118.246422,135,127,136,133,134,102,70,13,2,72,102,125,208,206,109,722,708,709,854,663,583,590,478,517,409,426,564
3030,Main & 1st,7/7/2016,DTLA,Active,3469,34.051941,-118.24353,622,728,728,671,559,94,67,43,55,1807,483,558,347,135,41,2882,2250,2770,2755,1936,1227,1351,1483,1444,942,1383,1899
3031,7th & Spring,7/7/2016,DTLA,Active,2645,34.044701,-118.252441,414,431,391,392,425,278,314,157,26,139,271,494,655,571,332,1984,2450,2599,2271,2127,1739,1856,2188,1952,1335,1874,2307
3032,Hope & 6th,7/7/2016,DTLA,Active,1406,34.049889,-118.255882,242,253,251,239,212,128,81,8,4,227,327,368,285,148,39,1097,965,1203,1265,947,912,971,1300,1093,707,902,1169
3033,Main & 9th,7/7/2016,DTLA,Active,783,34.040989,-118.255798,133,135,99,140,114,85,77,68,2,64,98,104,124,203,120,449,501,545,469,371,277,302,328,304,198,261,319
3034,Hope & 11th,7/7/2016,DTLA,Active,1078,34.042061,-118.263382,186,183,177,163,174,92,103,9,0,53,150,209,241,350,66,936,1058,1238,1152,1010,1053,1094,1230,1124,658,947,1427
3035,Figueroa & 8th,7/7/2016,DTLA,Active,1928,34.048401,-118.260948,320,288,305,281,286,240,208,26,15,149,386,360,305,456,231,1454,1322,1570,875,1477,1072,1433,1602,1531,852,1161,1500
3036,Willow St & Mateo St,7/7/2016,DTLA,Active,407,34.039188,-118.232529,52,72,72,55,63,39,54,2,31,108,43,93,46,60,24,410,430,645,679,632,428,456,474,526,343,401,680
3037,Imperial & 7th,7/7/2016,DTLA,Active,508,34.034801,-118.231277,77,70,73,66,91,70,61,25,2,48,120,116,95,68,34,422,352,392,479,418,350,315,448,574,371,466,590
3038,Main & 5th,7/7/2016,DTLA,Active,1386,34.046822,-118.248352,187,190,199,192,196,208,214,85,17,94,120,236,222,346,266,1113,1104,1512,1472,1152,1039,1101,1287,1318,722,1077,1395
3040,Wilshire & Witmer,7/7/2016,DTLA,Active,550,34.05357,-118.266357,88,94,68,60,83,76,81,42,9,16,55,89,123,129,87,296,250,349,487,284,236,331,232,277,139,197,401
3042,1st & Central,7/7/2016,DTLA,Active,1878,34.049301,-118.238808,300,341,297,300,312,153,175,51,8,108,122,230,910,307,142,1826,1602,2203,2145,1846,1485,1614,1779,2075,1421,1598,2274
3045,18th & San Pedro,7/7/2016,DTLA,Active,158,34.028511,-118.256668,25,25,20,27,19,22,20,13,1,45,14,23,30,18,14,129,102,171,219,184,133,135,193,150,102,76,141
3046,2nd & Hill,7/12/2016,DTLA,Active,507,34.052872,-118.24749,79,67,74,85,96,59,47,12,1,70,57,81,100,126,60,385,345,435,606,506,588,644,388,436,315,354,463
3047,Pico & Flower,7/7/2016,DTLA,Active,873,34.039982,-118.266403,135,132,119,135,112,100,140,50,14,76,100,127,148,237,121,624,838,1296,1260,944,852,705,897,868,547,650,797
3048,5th & Hewitt,7/13/2016,DTLA,Active,675,34.041691,-118.235352,117,100,105,99,83,80,91,20,7,92,144,120,117,103,72,622,788,992,1234,998,974,1143,1152,1306,854,1050,1252
3049,2nd & Figueroa,7/7/2016,DTLA,Active,1121,34.056969,-118.253593,162,192,176,155,183,121,132,72,5,121,109,188,168,307,151,807,713,1128,962,808,735,1076,938,795,677,693,1119
3051,7th & Broadway,7/7/2016,DTLA,Active,839,34.045422,-118.253517,141,104,112,134,130,120,98,31,5,43,102,158,185,232,83,740,829,920,845,808,624,745,809,758,465,744,730
3052,7th & Bixel,7/7/2016,DTLA,Active,666,34.051102,-118.264557,92,95,117,84,90,105,83,27,4,35,83,112,103,191,111,423,483,680,653,458,407,461,561,551,358,472,667
3054,Factory Place & Alameda,7/7/2016,DTLA,Active,281,34.039219,-118.236488,42,60,42,49,41,18,29,5,2,26,73,51,66,49,9,332,362,457,504,480,559,426,510,537,269,207,364
3056,Grand & 14th,7/7/2016,DTLA,Active,286,34.03746,-118.265381,47,54,43,45,35,30,32,7,9,72,47,51,33,45,22,254,198,432,502,405,335,232,425,421,359,571,551
3057,18th & Figueroa,7/7/2016,DTLA,Active,322,34.035679,-118.270813,50,40,66,36,51,40,39,23,2,9,44,61,70,56,57,160,149,295,191,204,181,281,251,265,97,131,171
3058,Industrial St & Mateo St,7/7/2016,DTLA,Active,309,34.035801,-118.23317,48,44,43,47,46,37,44,8,3,44,35,50,61,75,33,289,421,556,722,449,490,445,547,575,472,636,836
3062,3rd & San Pedro,7/7/2016,DTLA,Active,788,34.047749,-118.243172,118,107,119,126,114,100,104,22,16,74,132,222,117,143,62,653,501,796,921,675,687,840,876,958,649,748,807
3063,Olive & 5th,7/7/2016,DTLA,Active,1294,34.048038,-118.253738,227,228,204,210,206,78,141,17,13,125,147,226,272,409,85,955,904,1222,1138,1427,1357,1407,733,1756,1183,1177,1403
3064,Grand & 7th,7/11/2016,DTLA,Active,1701,34.04681,-118.256981,283,241,236,254,260,221,206,24,9,155,314,361,279,406,153,1352,1428,1670,2129,1789,1575,1760,2174,1831,1120,1628,1857
3065,New High & Ord,7/7/2016,DTLA,Active,494,34.060558,-118.238327,73,78,81,82,84,53,43,7,3,33,66,92,143,127,23,327,271,367,405,390,328,301,303,348,222,313,481
3066,Spring & College,7/7/2016,DTLA,Active,763,34.063389,-118.23616,91,91,131,103,126,109,112,24,9,81,78,101,211,200,59,681,523,667,730,584,572,695,762,903,312,359,532
3067,Main & 6th,7/7/2016,DTLA,Active,1355,34.045181,-118.250237,196,199,186,208,217,174,175,64,6,51,178,223,312,340,181,1073,1047,1586,1659,1284,927,1087,1383,1189,784,1104,1593
3068,Grand & 3rd,7/7/2016,DTLA,Active,558,34.0532,-118.250954,73,78,75,98,89,75,70,8,7,47,135,122,98,100,41,402,309,422,590,355,294,362,394,450,199,339,445
3069,Broadway & 3rd,7/7/2016,DTLA,Active,1179,34.05088,-118.248253,160,207,165,157,201,160,129,31,7,153,239,255,208,188,98,1156,1273,1783,2046,1628,1393,1606,1868,1901,1428,1609,2035
3074,Hope & Olympic,7/7/2016,DTLA,Active,1565,34.04417,-118.261169,253,248,223,250,215,175,201,41,4,94,145,306,319,446,210,971,967,1365,1017,686,620,826,1044,919,538,753,1070
3075,Broadway & 9th,7/7/2016,DTLA,Active,1004,34.04211,-118.256187,157,149,143,157,160,121,117,36,5,34,124,236,206,257,106,862,1032,1330,1503,1076,832,953,1130,1072,553,736,987
3076,9th & Los Angeles,7/7/2016,DTLA,Active,855,34.0406,-118.253838,139,146,107,127,153,97,86,35,7,107,124,222,147,152,61,647,733,824,781,808,717,705,761,763,453,648,859
3077,8th & Wall,7/7/2016,DTLA,Active,377,34.039871,-118.250038,63,56,77,55,60,38,28,15,4,32,57,97,66,74,32,315,433,430,499,401,297,277,308,288,212,307,292
3078,Hill & College,7/7/2016,DTLA,Active,437,34.064281,-118.238937,52,60,52,62,69,81,61,22,4,55,27,55,107,84,83,315,282,335,354,337,289,390,304,339,303,228,352
3079,Temple & Vignes,7/7/2016,DTLA,Active,143,34.05014,-118.233192,22,19,26,23,18,22,13,2,4,35,17,19,52,12,2,#N/A,#N/A,#N/A,4,179,171,237,182,274,202,190,325
3081,Stanford & 12th,7/13/2016,DTLA,Active,204,34.031891,-118.250183,28,35,40,30,37,20,14,6,2,78,39,31,23,14,11,194,152,252,284,319,280,211,171,177,201,249,194
3082,Traction & Rose,8/29/2016,DTLA,Active,1371,34.04652,-118.237411,185,217,203,177,212,200,177,43,11,85,161,238,315,369,149,1459,1520,2050,2663,2002,1777,2017,2172,2407,1683,2060,960
4125,Banning's Landing,7/31/2017,Port of LA,Inactive,9,33.766659,-118.261017,3,1,,1,1,,3,0,0,0,2,2,4,1,0,21,4,8,16,8,15,23,30,#N/A,#N/A,#N/A,#N/A
4126,Cabrillo Beach,7/31/2017,Port of LA,Inactive,752,33.710979,-118.284668,100,91,71,132,62,129,167,9,6,18,83,199,210,203,24,551,91,205,814,396,316,350,359,#N/A,#N/A,#N/A,#N/A
4127,Catalina Express,7/31/2017,Port of LA,Inactive,41,33.74892,-118.275192,8,6,7,7,4,4,5,0,0,6,2,5,9,17,2,31,19,16,80,31,37,45,86,#N/A,#N/A,#N/A,#N/A
4129,Crafted 22nd St Park,7/31/2017,Port of LA,Inactive,422,33.725819,-118.28051,46,49,45,59,51,84,88,2,1,39,58,60,96,151,15,167,73,87,246,189,93,189,234,#N/A,#N/A,#N/A,#N/A
4130,DoubleTree Hotel,7/31/2017,Port of LA,Inactive,223,33.719261,-118.282722,23,20,25,32,33,30,60,0,2,12,46,40,45,76,2,182,114,129,302,179,114,191,255,#N/A,#N/A,#N/A,#N/A
4131,Downtown Harbor,7/31/2017,Port of LA,Inactive,279,33.738979,-118.279266,37,24,16,32,50,59,61,5,5,12,33,39,66,88,31,287,138,186,459,269,166,279,502,#N/A,#N/A,#N/A,#N/A
4132,Fanfare Fountain,7/31/2017,Port of LA,Inactive,238,33.74913,-118.280182,36,13,18,22,33,45,71,7,2,0,9,16,22,111,71,192,112,143,348,192,118,200,296,#N/A,#N/A,#N/A,#N/A
4133,Ports O'Call,7/31/2017,Port of LA,Inactive,290,33.733521,-118.277786,57,15,29,33,55,40,61,2,3,9,44,63,80,65,24,357,169,147,363,200,158,133,230,#N/A,#N/A,#N/A,#N/A
4134,USS IOWA,7/31/2017,Port of LA,Inactive,57,33.74136,-118.278069,5,3,1,13,10,12,13,0,1,0,7,17,12,15,5,78,30,43,67,100,69,51,112,#N/A,#N/A,#N/A,#N/A
4135,Waterfront Park (East),7/31/2017,Port of LA,Inactive,134,33.772301,-118.268044,22,36,13,12,23,17,11,1,1,4,13,17,18,75,5,173,37,70,62,64,46,67,237,#N/A,#N/A,#N/A,#N/A
4136,Waterfront Park (West),7/31/2017,Port of LA,Inactive,69,33.771759,-118.276543,15,7,11,11,1,11,13,1,1,0,2,7,7,34,17,77,35,21,60,46,21,46,85,#N/A,#N/A,#N/A,#N/A
4220,Park & Echo Park,9/28/2017,DTLA,Active,941,34.074829,-118.258728,198,145,139,134,151,72,102,28,8,38,112,129,282,249,95,562,392,577,#N/A,#N/A,#N/A,#N/A,#N/A,#N/A,#N/A,#N/A,#N/A
4227,Grand / LATTC,12/15/2017,DTLA,Active,605,34.0298,-118.270309,92,105,103,98,88,51,68,44,5,138,145,61,75,76,61,196,178,247,#N/A,#N/A,#N/A,#N/A,#N/A,#N/A,#N/A,#N/A,#N/A
4245,University & Hoover,7/8/2018,DTLA,Active,313,34.02404,-118.283409,48,50,47,50,46,40,32,0,3,24,96,47,78,51,14,202,239,301,#N/A,#N/A,#N/A,#N/A,#N/A,#N/A,#N/A,#N/A,#N/A
4246,32nd & Figueroa,7/3/2018,DTLA,Active,359,34.023708,-118.279167,50,71,47,47,38,58,48,7,4,16,43,53,74,94,68,279,225,364,#N/A,#N/A,#N/A,#N/A,#N/A,#N/A,#N/A,#N/A,#N/A
4247,25th & Vermont,5/29/2019,DTLA,Active,232,34.033642,-118.291313,49,36,31,32,27,24,33,18,9,6,8,19,49,89,34,99,#N/A,#N/A,#N/A,#N/A,#N/A,#N/A,#N/A,#N/A,#N/A,#N/A,#N/A
4248,29th & Ellendale,7/2/2018,DTLA,Active,434,34.028351,-118.288673,64,55,61,72,67,55,60,19,3,25,44,58,103,135,47,246,207,261,#N/A,#N/A,#N/A,#N/A,#N/A,#N/A,#N/A,#N/A,#N/A
4249,Figueroa & McCarthy Way,6/29/2018,DTLA,Active,790,34.020302,-118.281181,130,135,117,119,110,87,92,14,7,47,161,147,170,152,92,382,306,583,#N/A,#N/A,#N/A,#N/A,#N/A,#N/A,#N/A,#N/A,#N/A
4250,Severance & Adams,7/9/2018,DTLA,Active,371,34.03017,-118.280952,62,60,65,50,45,50,39,15,1,29,43,59,86,86,52,196,175,231,#N/A,#N/A,#N/A,#N/A,#N/A,#N/A,#N/A,#N/A,#N/A
4254,Hoover & 29th,6/28/2018,DTLA,Active,228,34.028679,-118.284111,29,31,33,21,30,42,42,11,4,10,15,38,68,53,29,122,121,141,#N/A,#N/A,#N/A,#N/A,#N/A,#N/A,#N/A,#N/A,#N/A
4266,28th & Figueroa,11/29/2018,DTLA,Active,939,34.026291,-118.277687,136,121,114,130,125,155,158,54,12,18,74,148,174,253,206,341,319,80,#N/A,#N/A,#N/A,#N/A,#N/A,#N/A,#N/A,#N/A,#N/A
4267,28th & University,8/23/2018,DTLA,Active,88,34.027618,-118.280678,14,9,6,10,13,20,16,6,0,3,8,25,18,16,12,90,59,138,#N/A,#N/A,#N/A,#N/A,#N/A,#N/A,#N/A,#N/A,#N/A
4273,Hoover & 32nd,10/8/2018,DTLA,Active,632,34.02586,-118.284103,85,93,83,76,93,99,103,4,3,34,86,108,140,157,100,306,325,177,#N/A,#N/A,#N/A,#N/A,#N/A,#N/A,#N/A,#N/A,#N/A
4275,Expo Park/LAFC,12/18/2018,DTLA,Active,266,34.01252,-118.285896,30,18,26,31,36,59,66,42,4,8,26,37,60,59,30,158,78,22,#N/A,#N/A,#N/A,#N/A,#N/A,#N/A,#N/A,#N/A,#N/A
4285,Metro Bike Share Free Bikes,2/27/2019,Free Bikes,Active,1856,0,0,257,243,224,216,341,289,286,45,9,77,296,458,440,404,127,1116,372,#N/A,#N/A,#N/A,#N/A,#N/A,#N/A,#N/A,#N/A,#N/A,#N/A
4286,Metro Bike Share Out of Service Area Smart Bike,2/27/2019,Free Bikes,Active,892,0,0,64,157,89,124,147,166,145,10,5,10,133,224,277,196,37,567,98,#N/A,#N/A,#N/A,#N/A,#N/A,#N/A,#N/A,#N/A,#N/A,#N/A
4293,Westlake & 3rd,1/25/2019,DTLA,Active,213,34.062279,-118.271523,29,33,29,35,25,31,31,8,5,12,17,32,41,58,40,59,32,#N/A,#N/A,#N/A,#N/A,#N/A,#N/A,#N/A,#N/A,#N/A,#N/A
4300,Union & Olympic,1/24/2019,DTLA,Active,301,34.04887,-118.2743,52,57,47,37,33,40,35,15,6,10,33,46,83,70,38,219,86,#N/A,#N/A,#N/A,#N/A,#N/A,#N/A,#N/A,#N/A,#N/A,#N/A
4301,Maubert & Vermont,6/18/2019,DTLA,Active,200,34.099049,-118.291496,25,29,21,23,24,28,50,7,1,25,23,44,48,35,17,17,#N/A,#N/A,#N/A,#N/A,#N/A,#N/A,#N/A,#N/A,#N/A,#N/A,#N/A
4302,Vermont Pl & Vermont,6/19/2019,DTLA,Active,172,34.092491,-118.291443,35,17,17,18,11,34,40,7,3,5,36,33,38,30,20,17,#N/A,#N/A,#N/A,#N/A,#N/A,#N/A,#N/A,#N/A,#N/A,#N/A,#N/A
4303,Sunset & Virgil,6/18/2019,DTLA,Active,133,34.098011,-118.287071,14,17,21,15,14,16,36,6,0,6,18,27,35,29,12,11,#N/A,#N/A,#N/A,#N/A,#N/A,#N/A,#N/A,#N/A,#N/A,#N/A,#N/A
4304,Shatto Pl & Wilshire,1/28/2019,DTLA,Active,544,34.06258,-118.290092,72,74,73,82,100,52,91,16,5,45,53,99,104,108,114,228,58,#N/A,#N/A,#N/A,#N/A,#N/A,#N/A,#N/A,#N/A,#N/A,#N/A
4306,8th & Vermont,1/29/2019,DTLA,Active,214,34.057652,-118.292183,34,28,24,36,23,32,37,17,2,5,10,31,49,62,38,209,72,#N/A,#N/A,#N/A,#N/A,#N/A,#N/A,#N/A,#N/A,#N/A,#N/A
4311,7th & Berendo,2/7/2019,DTLA,Active,529,34.059689,-118.294662,52,54,67,76,91,91,98,27,9,5,33,95,91,166,103,161,74,#N/A,#N/A,#N/A,#N/A,#N/A,#N/A,#N/A,#N/A,#N/A,#N/A
4312,4th & Vermont,2/7/2019,DTLA,Active,285,34.06699,-118.290878,39,51,42,33,43,36,41,27,7,15,29,38,48,52,69,165,35,#N/A,#N/A,#N/A,#N/A,#N/A,#N/A,#N/A,#N/A,#N/A,#N/A
4313,Westlake/Macarthur Park Station,2/6/2019,DTLA,Active,260,34.056808,-118.275002,36,32,39,30,37,41,45,11,3,32,56,41,29,59,29,209,51,#N/A,#N/A,#N/A,#N/A,#N/A,#N/A,#N/A,#N/A,#N/A,#N/A
4314,7th & Park View,2/8/2019,DTLA,Active,463,34.057709,-118.279762,67,66,65,73,64,65,63,32,7,23,68,74,69,131,59,176,62,#N/A,#N/A,#N/A,#N/A,#N/A,#N/A,#N/A,#N/A,#N/A,#N/A
4315,Union & 7th,2/6/2019,DTLA,Active,491,34.054031,-118.27092,54,73,54,70,86,80,74,31,6,18,55,92,106,126,57,265,92,#N/A,#N/A,#N/A,#N/A,#N/A,#N/A,#N/A,#N/A,#N/A,#N/A
4322,Venice & Inglewood,2/27/2019,Westside,Active,127,34.005871,-118.429161,22,19,16,16,23,10,21,0,0,1,17,26,25,52,6,96,36,#N/A,#N/A,#N/A,#N/A,#N/A,#N/A,#N/A,#N/A,#N/A,#N/A
4323,Venice & Beethoven,2/27/2019,Westside,Active,46,33.99958,-118.44136,2,6,8,5,8,5,12,0,0,1,10,3,15,14,3,55,21,#N/A,#N/A,#N/A,#N/A,#N/A,#N/A,#N/A,#N/A,#N/A,#N/A
4324,Palms & Motor,2/27/2019,Westside,Active,115,34.02655,-118.408463,21,13,24,14,18,10,15,1,6,3,5,15,30,35,20,43,42,#N/A,#N/A,#N/A,#N/A,#N/A,#N/A,#N/A,#N/A,#N/A,#N/A
4325,Venice & Clarington,2/27/2019,Westside,Active,115,34.022518,-118.400589,16,12,23,17,16,15,16,1,1,20,47,9,12,18,7,109,43,#N/A,#N/A,#N/A,#N/A,#N/A,#N/A,#N/A,#N/A,#N/A,#N/A
4328,Sepulveda & Palms,2/27/2019,Westside,Active,58,34.020061,-118.422684,7,6,9,7,11,10,8,12,0,2,6,9,14,11,4,46,13,#N/A,#N/A,#N/A,#N/A,#N/A,#N/A,#N/A,#N/A,#N/A,#N/A
4329,Palms & National,2/27/2019,Westside,Active,150,34.029121,-118.403168,19,27,19,26,20,17,22,2,5,49,20,24,19,28,3,216,63,#N/A,#N/A,#N/A,#N/A,#N/A,#N/A,#N/A,#N/A,#N/A,#N/A
4330,Bagley & Venice,2/27/2019,Westside,Active,145,34.025688,-118.395302,20,13,28,26,28,16,14,0,1,20,33,27,24,39,1,162,117,#N/A,#N/A,#N/A,#N/A,#N/A,#N/A,#N/A,#N/A,#N/A,#N/A
4331,Venice & Colonial,2/27/2019,Westside,Active,163,34.00351,-118.43438,24,25,24,25,22,16,27,1,0,20,59,33,17,25,8,86,104,#N/A,#N/A,#N/A,#N/A,#N/A,#N/A,#N/A,#N/A,#N/A,#N/A
4332,National & Motor,2/27/2019,Westside,Active,90,34.02948,-118.410469,8,14,18,16,16,9,9,0,0,22,3,12,32,15,6,64,34,#N/A,#N/A,#N/A,#N/A,#N/A,#N/A,#N/A,#N/A,#N/A,#N/A
4333,Venice & Walgrove,2/27/2019,Westside,Active,69,33.997231,-118.445969,6,11,9,9,12,8,14,1,0,8,20,5,24,9,2,85,18,#N/A,#N/A,#N/A,#N/A,#N/A,#N/A,#N/A,#N/A,#N/A,#N/A
4334,Venice & Motor,2/27/2019,Westside,Active,115,34.02018,-118.40403,17,15,12,14,19,17,21,2,1,11,24,16,23,33,5,103,60,#N/A,#N/A,#N/A,#N/A,#N/A,#N/A,#N/A,#N/A,#N/A,#N/A
4335,Venice & Hughes,2/27/2019,Westside,Active,110,34.023392,-118.399223,14,14,20,14,16,11,21,2,0,18,13,16,23,26,12,99,80,#N/A,#N/A,#N/A,#N/A,#N/A,#N/A,#N/A,#N/A,#N/A,#N/A
4336,Barrington & National,2/28/2019,Westside,Active,74,34.022449,-118.438332,11,7,7,14,6,11,18,0,1,4,13,16,13,24,3,44,19,#N/A,#N/A,#N/A,#N/A,#N/A,#N/A,#N/A,#N/A,#N/A,#N/A
4337,Inglewood & Braddock,5/22/2019,Westside,Active,50,33.993019,-118.414909,5,10,4,8,9,5,9,1,0,0,8,6,19,12,4,19,#N/A,#N/A,#N/A,#N/A,#N/A,#N/A,#N/A,#N/A,#N/A,#N/A,#N/A
4338,Sepulveda & Venice,7/2/2019,Westside,Active,92,34.01376,-118.417801,18,25,10,13,11,7,8,3,0,2,15,10,36,16,10,#N/A,#N/A,#N/A,#N/A,#N/A,#N/A,#N/A,#N/A,#N/A,#N/A,#N/A,#N/A
4340,17th St / SMC Expo Line Station,2/27/2019,Westside,Active,146,34.02338,-118.479637,25,14,18,20,15,32,22,0,0,14,24,40,36,29,3,114,21,#N/A,#N/A,#N/A,#N/A,#N/A,#N/A,#N/A,#N/A,#N/A,#N/A
4341,7th & Westminster,2/27/2019,Westside,Active,62,33.9953,-118.464844,6,18,8,4,5,13,8,1,0,2,12,11,15,19,2,40,10,#N/A,#N/A,#N/A,#N/A,#N/A,#N/A,#N/A,#N/A,#N/A,#N/A
4342,Abbot Kinney & Cadiz,2/27/2019,Westside,Active,339,33.991161,-118.468292,51,41,43,50,58,53,43,1,0,11,74,67,85,78,23,279,100,#N/A,#N/A,#N/A,#N/A,#N/A,#N/A,#N/A,#N/A,#N/A,#N/A
4343,California & Lincoln,2/27/2019,Westside,Active,128,33.998322,-118.460983,18,28,26,21,12,12,11,0,0,1,17,14,24,70,2,112,51,#N/A,#N/A,#N/A,#N/A,#N/A,#N/A,#N/A,#N/A,#N/A,#N/A
4344,Downtown Santa Monica Expo Line Station,2/27/2019,Westside,Active,1547,34.014309,-118.491341,213,220,159,209,196,312,238,25,4,39,177,336,471,404,91,1252,403,#N/A,#N/A,#N/A,#N/A,#N/A,#N/A,#N/A,#N/A,#N/A,#N/A
4345,Ocean Front Walk & Navy,2/27/2019,Westside,Active,2878,33.99556,-118.481552,318,354,372,383,440,573,438,23,0,38,372,884,826,612,123,2286,340,#N/A,#N/A,#N/A,#N/A,#N/A,#N/A,#N/A,#N/A,#N/A,#N/A
4346,Ocean Front Walk & North Venice,2/27/2019,Westside,Active,1632,33.984341,-118.47155,212,234,209,182,195,291,309,6,2,29,210,498,456,353,78,1099,401,#N/A,#N/A,#N/A,#N/A,#N/A,#N/A,#N/A,#N/A,#N/A,#N/A
4347,Pacific & North Venice,2/27/2019,Westside,Active,452,33.984928,-118.469963,31,31,68,98,67,109,48,5,0,10,58,126,124,108,21,330,100,#N/A,#N/A,#N/A,#N/A,#N/A,#N/A,#N/A,#N/A,#N/A,#N/A
4348,Rose & 7th,2/27/2019,Westside,Active,187,34.000881,-118.46891,25,30,27,32,21,23,29,0,0,4,53,39,54,33,4,97,54,#N/A,#N/A,#N/A,#N/A,#N/A,#N/A,#N/A,#N/A,#N/A,#N/A
4349,Rose & Main,2/27/2019,Westside,Active,494,33.996239,-118.477448,78,78,86,71,81,48,52,0,45,57,118,77,88,93,16,422,123,#N/A,#N/A,#N/A,#N/A,#N/A,#N/A,#N/A,#N/A,#N/A,#N/A
4350,Rose & Rennie,2/27/2019,Westside,Active,92,33.9986,-118.472977,11,12,5,8,16,23,17,2,0,4,3,28,32,14,9,83,12,#N/A,#N/A,#N/A,#N/A,#N/A,#N/A,#N/A,#N/A,#N/A,#N/A
4351,Venice & Lincoln,2/27/2019,Westside,Active,175,33.993729,-118.45356,26,24,21,38,19,21,26,2,1,8,21,47,47,32,17,106,53,#N/A,#N/A,#N/A,#N/A,#N/A,#N/A,#N/A,#N/A,#N/A,#N/A
4352,Washington & Abbot Kinney,2/27/2019,Westside,Active,178,33.988419,-118.45163,20,19,16,30,26,22,45,0,0,5,26,54,40,37,16,153,62,#N/A,#N/A,#N/A,#N/A,#N/A,#N/A,#N/A,#N/A,#N/A,#N/A
4353,Windward & Main,2/27/2019,Westside,Active,381,33.988129,-118.471741,46,43,41,53,57,60,81,5,0,10,56,84,117,92,17,309,87,#N/A,#N/A,#N/A,#N/A,#N/A,#N/A,#N/A,#N/A,#N/A,#N/A
4354,Venice & Glendon,2/27/2019,Westside,Active,196,34.017681,-118.409081,31,21,26,29,26,30,33,11,3,17,28,44,33,41,19,111,62,#N/A,#N/A,#N/A,#N/A,#N/A,#N/A,#N/A,#N/A,#N/A,#N/A
4372,Public Bike Rack: Culver City Expo Line,3/19/2019,Westside,Active,120,34.027882,-118.388901,19,13,19,13,16,21,19,1,0,12,21,22,38,21,5,138,13,#N/A,#N/A,#N/A,#N/A,#N/A,#N/A,#N/A,#N/A,#N/A,#N/A
4378,Palms & Kelton,3/21/2019,Westside,Active,52,34.022331,-118.415771,8,14,11,5,5,8,1,2,0,1,1,2,23,14,9,51,3,#N/A,#N/A,#N/A,#N/A,#N/A,#N/A,#N/A,#N/A,#N/A,#N/A
4379,Sepulveda & Charnock,3/20/2019,Westside,Active,22,34.017368,-118.420601,6,4,2,2,,4,4,3,0,2,4,2,4,4,3,33,3,#N/A,#N/A,#N/A,#N/A,#N/A,#N/A,#N/A,#N/A,#N/A,#N/A
4380,Centinela & Lucile,3/20/2019,Westside,Active,86,33.982922,-118.410927,17,18,16,16,16,2,1,2,0,8,58,5,3,8,2,51,10,#N/A,#N/A,#N/A,#N/A,#N/A,#N/A,#N/A,#N/A,#N/A,#N/A
4381,Sepulveda & Lucerne,3/20/2019,Westside,Active,41,34.000332,-118.402321,6,6,4,7,7,8,3,0,0,1,8,9,12,9,2,41,#N/A,#N/A,#N/A,#N/A,#N/A,#N/A,#N/A,#N/A,#N/A,#N/A,#N/A
4382,Westwood & National,3/20/2019,Westside,Active,21,34.030472,-118.420982,2,2,6,4,4,2,1,1,0,4,0,5,5,6,0,19,2,#N/A,#N/A,#N/A,#N/A,#N/A,#N/A,#N/A,#N/A,#N/A,#N/A
4383,McLaughlin & Venice,4/29/2019,Westside,Active,100,34.009022,-118.425011,14,22,21,13,12,6,12,0,0,1,15,24,14,38,8,35,#N/A,#N/A,#N/A,#N/A,#N/A,#N/A,#N/A,#N/A,#N/A,#N/A,#N/A
4384,Inglewood & Ballona,7/2/2019,Westside,Active,48,33.990318,-118.412048,5,7,2,2,3,17,12,0,0,0,11,9,10,17,1,#N/A,#N/A,#N/A,#N/A,#N/A,#N/A,#N/A,#N/A,#N/A,#N/A,#N/A,#N/A
4385,Public Bike Rack: Westwood/Rancho Park Expo Line,3/19/2019,Westside,Active,41,34.036678,-118.425339,5,8,9,7,6,2,4,1,0,7,7,3,9,13,1,20,#N/A,#N/A,#N/A,#N/A,#N/A,#N/A,#N/A,#N/A,#N/A,#N/A,#N/A
4387,Row DTLA,4/1/2019,DTLA,Active,387,34.03352,-118.241837,38,58,58,50,62,40,81,2,3,122,78,100,57,24,1,272,#N/A,#N/A,#N/A,#N/A,#N/A,#N/A,#N/A,#N/A,#N/A,#N/A,#N/A
4389,Expo/Sepulveda Expo Line Station,5/6/2019,Westside,Active,122,34.035351,-118.434143,19,19,17,18,24,17,8,0,2,14,21,25,28,21,11,36,#N/A,#N/A,#N/A,#N/A,#N/A,#N/A,#N/A,#N/A,#N/A,#N/A,#N/A
4390,Kenmore & 3rd,5/9/2019,DTLA,Active,421,34.069271,-118.296593,63,59,43,65,70,58,63,31,6,6,77,50,68,106,77,109,#N/A,#N/A,#N/A,#N/A,#N/A,#N/A,#N/A,#N/A,#N/A,#N/A,#N/A
4393,Durango & Venice,7/3/2019,Westside,Active,79,34.026829,-118.393517,12,14,10,11,12,9,11,0,0,1,47,9,14,7,1,1,#N/A,#N/A,#N/A,#N/A,#N/A,#N/A,#N/A,#N/A,#N/A,#N/A,#N/A
4394,Westlawn & Beatrice,7/3/2019,Westside,Active,86,33.980789,-118.414902,14,19,17,11,5,8,12,0,0,13,36,15,12,10,0,#N/A,#N/A,#N/A,#N/A,#N/A,#N/A,#N/A,#N/A,#N/A,#N/A,#N/A,#N/A
4395,COAST Pop-up,9/15/2019,Westside,Inactive,6,34.01157,-118.495422,,,,,,,6,0,0,0,0,2,4,0,0,3,#N/A,#N/A,#N/A,#N/A,#N/A,#N/A,#N/A,#N/A,#N/A,#N/A,#N/A
4396,Sepulveda & National,5/22/2019,Westside,Active,77,34.02697,-118.428207,14,8,9,17,12,9,8,5,4,0,6,7,19,29,7,11,#N/A,#N/A,#N/A,#N/A,#N/A,#N/A,#N/A,#N/A,#N/A,#N/A,#N/A
4397,Mar Vista Rec Center,5/17/2019,Westside,Active,62,34.01688,-118.428452,10,11,12,7,8,8,6,0,0,1,8,11,13,23,6,19,#N/A,#N/A,#N/A,#N/A,#N/A,#N/A,#N/A,#N/A,#N/A,#N/A,#N/A
4400,Newton & Central,6/11/2019,DTLA,Active,152,34.027828,-118.247139,21,31,21,28,24,21,6,12,3,23,29,22,24,21,18,49,#N/A,#N/A,#N/A,#N/A,#N/A,#N/A,#N/A,#N/A,#N/A,#N/A,#N/A
4401,Vermont & Beverly,5/31/2019,DTLA,Active,341,34.075611,-118.291862,39,65,50,34,41,62,50,22,13,45,33,64,63,52,49,59,#N/A,#N/A,#N/A,#N/A,#N/A,#N/A,#N/A,#N/A,#N/A,#N/A,#N/A
4402,Pop Hollywood Ciclavia Walk of Fame Hub,8/18/2019,DTLA,Inactive,141,34.101509,-118.33979,,,,,,,141,0,0,1,19,66,55,0,0,#N/A,#N/A,#N/A,#N/A,#N/A,#N/A,#N/A,#N/A,#N/A,#N/A,#N/A,#N/A
4404,Albany & Olympic,6/4/2019,DTLA,Active,237,34.04813,-118.271027,39,43,42,30,34,26,23,31,1,18,25,41,51,45,25,46,#N/A,#N/A,#N/A,#N/A,#N/A,#N/A,#N/A,#N/A,#N/A,#N/A,#N/A
4405,Berendo & Olympic,6/25/2019,DTLA,Active,225,34.051899,-118.293678,34,39,40,36,22,28,26,7,4,15,14,52,35,69,29,19,#N/A,#N/A,#N/A,#N/A,#N/A,#N/A,#N/A,#N/A,#N/A,#N/A,#N/A
4406,Normandie & Hollywood,8/15/2019,DTLA,Active,208,34.101891,-118.300613,19,17,13,29,19,31,80,6,3,19,34,57,52,31,6,#N/A,#N/A,#N/A,#N/A,#N/A,#N/A,#N/A,#N/A,#N/A,#N/A,#N/A,#N/A
4407,Pop Hollywood Ciclavia Barnsdall Art Park Hub,8/18/2019,DTLA,Active,115,34.101871,-118.29377,,,,,,,115,0,0,1,19,62,33,0,0,#N/A,#N/A,#N/A,#N/A,#N/A,#N/A,#N/A,#N/A,#N/A,#N/A,#N/A,#N/A
4408,Venice & Sawtelle,6/5/2019,Westside,Active,43,34.011799,-118.419533,6,14,5,5,5,3,5,0,1,3,4,13,9,13,0,15,#N/A,#N/A,#N/A,#N/A,#N/A,#N/A,#N/A,#N/A,#N/A,#N/A,#N/A
4409,Maxella & Del Ray,6/5/2019,Westside,Active,209,33.986511,-118.441917,30,33,31,34,34,20,27,3,0,15,79,26,33,46,7,43,#N/A,#N/A,#N/A,#N/A,#N/A,#N/A,#N/A,#N/A,#N/A,#N/A,#N/A
4410,Kenmore & 6th,6/4/2019,DTLA,Active,851,34.063351,-118.296799,126,114,91,132,117,131,140,68,11,24,42,127,169,212,198,152,#N/A,#N/A,#N/A,#N/A,#N/A,#N/A,#N/A,#N/A,#N/A,#N/A,#N/A
4413,Lankershim & Vineland,8/5/2019,North Hollywood,Active,83,34.158321,-118.370811,9,18,13,7,15,8,13,4,0,0,11,10,16,32,10,#N/A,#N/A,#N/A,#N/A,#N/A,#N/A,#N/A,#N/A,#N/A,#N/A,#N/A,#N/A
4414,Chandler & Colfax,8/5/2019,North Hollywood,Active,100,34.16835,-118.387497,13,22,18,14,11,12,10,2,0,26,6,13,14,33,6,#N/A,#N/A,#N/A,#N/A,#N/A,#N/A,#N/A,#N/A,#N/A,#N/A,#N/A,#N/A
4415,Chandler & Laurel Canyon,8/5/2019,North Hollywood,Active,99,34.168331,-118.396156,16,12,14,9,14,18,16,9,1,1,10,11,28,24,15,#N/A,#N/A,#N/A,#N/A,#N/A,#N/A,#N/A,#N/A,#N/A,#N/A,#N/A,#N/A
4416,Riverside & Colfax,8/5/2019,North Hollywood,Active,70,34.157581,-118.38826,4,12,15,8,11,12,8,5,1,0,17,16,13,8,10,#N/A,#N/A,#N/A,#N/A,#N/A,#N/A,#N/A,#N/A,#N/A,#N/A,#N/A,#N/A
4417,Magnolia & Cartwright,8/5/2019,North Hollywood,Active,71,34.164951,-118.363632,8,8,11,15,10,15,4,3,0,2,11,11,11,24,9,#N/A,#N/A,#N/A,#N/A,#N/A,#N/A,#N/A,#N/A,#N/A,#N/A,#N/A,#N/A
4418,Lankershim & Moorpark,8/5/2019,North Hollywood,Active,50,34.150688,-118.366127,5,6,9,6,6,7,11,0,0,2,11,6,6,12,13,#N/A,#N/A,#N/A,#N/A,#N/A,#N/A,#N/A,#N/A,#N/A,#N/A,#N/A,#N/A
4419,Magnolia & Clybourn,8/5/2019,North Hollywood,Active,41,34.165218,-118.355148,4,4,6,6,5,10,6,0,0,2,11,8,3,15,2,#N/A,#N/A,#N/A,#N/A,#N/A,#N/A,#N/A,#N/A,#N/A,#N/A,#N/A,#N/A
4420,North Hollywood Station,8/5/2019,North Hollywood,Active,400,34.168629,-118.377068,57,76,52,61,54,48,52,5,8,70,101,61,79,43,33,#N/A,#N/A,#N/A,#N/A,#N/A,#N/A,#N/A,#N/A,#N/A,#N/A,#N/A,#N/A
4422,Riverside & Cahuenga,8/5/2019,North Hollywood,Active,33,34.152142,-118.361954,3,6,2,5,7,6,4,1,1,3,2,16,7,3,0,#N/A,#N/A,#N/A,#N/A,#N/A,#N/A,#N/A,#N/A,#N/A,#N/A,#N/A,#N/A
4425,Mariota & Riverside,8/5/2019,North Hollywood,Active,62,34.152,-118.350601,4,3,13,14,8,9,11,1,0,6,10,15,15,12,3,#N/A,#N/A,#N/A,#N/A,#N/A,#N/A,#N/A,#N/A,#N/A,#N/A,#N/A,#N/A
4426,Tujunga & Moorpark,8/5/2019,North Hollywood,Active,87,34.149872,-118.378891,12,14,13,6,17,8,17,4,0,7,18,8,18,11,21,#N/A,#N/A,#N/A,#N/A,#N/A,#N/A,#N/A,#N/A,#N/A,#N/A,#N/A,#N/A
4427,Vineland & Otsego,8/5/2019,North Hollywood,Active,68,34.162891,-118.370163,9,8,14,10,11,3,13,2,0,0,6,13,10,30,7,#N/A,#N/A,#N/A,#N/A,#N/A,#N/A,#N/A,#N/A,#N/A,#N/A,#N/A,#N/A
4428,Lankershim & Hesby,8/5/2019,North Hollywood,Active,119,34.161709,-118.372818,24,16,25,12,13,9,20,0,0,5,10,16,23,49,16,#N/A,#N/A,#N/A,#N/A,#N/A,#N/A,#N/A,#N/A,#N/A,#N/A,#N/A,#N/A
4429,Chandler & Cahuenga,8/5/2019,North Hollywood,Active,144,34.168751,-118.36187,24,16,15,21,14,16,38,7,1,0,27,29,25,47,8,#N/A,#N/A,#N/A,#N/A,#N/A,#N/A,#N/A,#N/A,#N/A,#N/A,#N/A,#N/A
4430,Vineland & Burbank,8/5/2019,North Hollywood,Active,56,34.172451,-118.370369,11,7,8,8,4,10,8,2,0,1,8,10,12,18,5,#N/A,#N/A,#N/A,#N/A,#N/A,#N/A,#N/A,#N/A,#N/A,#N/A,#N/A,#N/A
4431,Lankershim & Califa,8/5/2019,North Hollywood,Active,80,34.177662,-118.382278,11,8,12,13,8,11,17,8,1,5,11,7,11,22,15,#N/A,#N/A,#N/A,#N/A,#N/A,#N/A,#N/A,#N/A,#N/A,#N/A,#N/A,#N/A
4432,Public Bike Rack: Universal City/Studio City Red Line Station,8/23/2019,North Hollywood,Active,61,34.139568,-118.362251,5,7,13,5,12,12,7,4,0,6,11,19,17,2,2,#N/A,#N/A,#N/A,#N/A,#N/A,#N/A,#N/A,#N/A,#N/A,#N/A,#N/A,#N/A
4435,Centre & 6th,8/28/2019,Port of LA,Inactive,21,33.738991,-118.28363,7,,,4,3,6,1,0,0,2,0,2,7,8,2,#N/A,#N/A,#N/A,#N/A,#N/A,#N/A,#N/A,#N/A,#N/A,#N/A,#N/A,#N/A
4436,Vermont & Franklin,9/4/2019,DTLA,Active,20,34.105782,-118.291939,3,2,3,2,5,5,,0,0,1,3,6,5,2,3,#N/A,#N/A,#N/A,#N/A,#N/A,#N/A,#N/A,#N/A,#N/A,#N/A,#N/A,#N/A
4437,Franklin & Hillhurst,9/4/2019,DTLA,Active,33,34.105358,-118.28727,4,6,3,4,9,3,4,0,1,0,1,12,6,11,2,#N/A,#N/A,#N/A,#N/A,#N/A,#N/A,#N/A,#N/A,#N/A,#N/A,#N/A,#N/A
4438,Hoover & Fountain,9/5/2019,DTLA,Active,59,34.094929,-118.284561,20,4,7,11,5,6,6,0,0,4,10,18,12,12,3,#N/A,#N/A,#N/A,#N/A,#N/A,#N/A,#N/A,#N/A,#N/A,#N/A,#N/A,#N/A
4440,Wilshire & Alexandria,9/11/2019,DTLA,Active,147,34.061661,-118.298241,18,6,21,22,18,37,25,10,0,6,18,27,23,37,26,#N/A,#N/A,#N/A,#N/A,#N/A,#N/A,#N/A,#N/A,#N/A,#N/A,#N/A,#N/A
4441,University & 30th,9/11/2019,DTLA,Active,46,34.026619,-118.281807,11,2,6,9,6,4,8,3,1,3,4,11,9,11,4,#N/A,#N/A,#N/A,#N/A,#N/A,#N/A,#N/A,#N/A,#N/A,#N/A,#N/A,#N/A
4442,Normandie & Sunset,9/12/2019,DTLA,Active,11,34.098,-118.300468,5,,,,2,1,3,0,0,1,1,3,2,4,0,#N/A,#N/A,#N/A,#N/A,#N/A,#N/A,#N/A,#N/A,#N/A,#N/A,#N/A,#N/A
4443,Flower & Jefferson,9/12/2019,DTLA,Active,51,34.02166,-118.278687,8,10,7,5,10,7,4,4,0,2,8,7,16,9,5,#N/A,#N/A,#N/A,#N/A,#N/A,#N/A,#N/A,#N/A,#N/A,#N/A,#N/A,#N/A
4444,Wilshire & Hobart,9/26/2019,DTLA,Active,63,34.061619,-118.305573,3,4,10,6,17,11,12,9,0,2,5,8,12,23,4,#N/A,#N/A,#N/A,#N/A,#N/A,#N/A,#N/A,#N/A,#N/A,#N/A,#N/A,#N/A
4445,Sunset & Douglas,9/18/2019,DTLA,Active,28,34.073639,-118.251572,3,,1,5,3,3,13,3,0,3,3,7,5,2,5,#N/A,#N/A,#N/A,#N/A,#N/A,#N/A,#N/A,#N/A,#N/A,#N/A,#N/A,#N/A
4449,12th & Valencia,9/25/2019,DTLA,Active,7,34.04557,-118.274193,3,,,1,1,2,,2,0,0,1,0,2,1,1,#N/A,#N/A,#N/A,#N/A,#N/A,#N/A,#N/A,#N/A,#N/A,#N/A,#N/A,#N/A
4453,Lucile & Hoover,9/25/2019,DTLA,Active,8,34.082649,-118.284393,2,,3,2,,,1,0,0,0,3,3,1,1,0,#N/A,#N/A,#N/A,#N/A,#N/A,#N/A,#N/A,#N/A,#N/A,#N/A,#N/A,#N/A
,,,,,,,,,,,,,,,,,,,,,,,,,,,,,,,,,,
,,,,,,,,,,,,,,,,,,,,,,,,,,,,,,,,,,
,,,,,,,,,,,,,,,,,,,,,,,,,,,,,,,,,,
,,,,,,,,,,,,,,,,,,,,,,,,,,,,,,,,,,
,,,,,,,,,,,,,,,,,,,,,,,,,,,,,,,,,,
,,,,,,,,,,,,,,,,,,,,,,,,,,,,,,,,,,
,,,,,,,,,,,,,,,,,,,,,,,,,,,,,,,,,,
,,,,,,,,,,,,,,,,,,,,,,,,,,,,,,,,,,
,,,,,,,,,,,,,,,,,,,,,,,,,,,,,,,,,,
,,,,,,,,,,,,,,,,,,,,,,,,,,,,,,,,,,
,,,,,,,,,,,,,,,,,,,,,,,,,,,,,,,,,,
,,,,,,,,,,,,,,,,,,,,,,,,,,,,,,,,,,
,,,,,,,,,,,,,,,,,,,,,,,,,,,,,,,,,,
,,,,,,,,,,,,,,,,,,,,,,,,,,,,,,,,,,
,,,,,,,,,,,,,,,,,,,,,,,,,,,,,,,,,,
,,,,,,,,,,,,,,,,,,,,,,,,,,,,,,,,,,
,,,,,,,,,,,,,,,,,,,,,,,,,,,,,,,,,,
,,,,,,,,,,,,,,,,,,,,,,,,,,,,,,,,,,
,,,,,,,,,,,,,,,,,,,,,,,,,,,,,,,,,,
,,,,,,,,,,,,,,,,,,,,,,,,,,,,,,,,,,
,,,,,,,,,,,,,,,,,,,,,,,,,,,,,,,,,,
,,,,,,,,,,,,,,,,,,,,,,,,,,,,,,,,,,
,,,,,,,,,,,,,,,,,,,,,,,,,,,,,,,,,,
,,,,,,,,,,,,,,,,,,,,,,,,,,,,,,,,,,
,,,,,,,,,,,,,,,,,,,,,,,,,,,,,,,,,,
,,,,,,,,,,,,,,,,,,,,,,,,,,,,,,,,,,
,,,,,,,,,,,,,,,,,,,,,,,,,,,,,,,,,,
,,,,,,,,,,,,,,,,,,,,,,,,,,,,,,,,,,
,,,,,,,,,,,,,,,,,,,,,,,,,,,,,,,,,,
,,,,,,,,,,,,,,,,,,,,,,,,,,,,,,,,,,
,,,,,,,,,,,,,,,,,,,,,,,,,,,,,,,,,,
,,,,,,,,,,,,,,,,,,,,,,,,,,,,,,,,,,
,,,,,,,,,,,,,,,,,,,,,,,,,,,,,,,,,,
,,,,,,,,,,,,,,,,,,,,,,,,,,,,,,,,,,
,,,,,,,,,,,,,,,,,,,,,,,,,,,,,,,,,,
,,,,,,,,,,,,,,,,,,,,,,,,,,,,,,,,,,
,,,,,,,,,,,,,,,,,,,,,,,,,,,,,,,,,,
,,,,,,,,,,,,,,,,,,,,,,,,,,,,,,,,,,
,,,,,,,,,,,,,,,,,,,,,,,,,,,,,,,,,,
,,,,,,,,,,,,,,,,,,,,,,,,,,,,,,,,,,
,,,,,,,,,,,,,,,,,,,,,,,,,,,,,,,,,,
,,,,,,,,,,,,,,,,,,,,,,,,,,,,,,,,,,
,,,,,,,,,,,,,,,,,,,,,,,,,,,,,,,,,,
,,,,,,,,,,,,,,,,,,,,,,,,,,,,,,,,,,
,,,,,,,,,,,,,,,,,,,,,,,,,,,,,,,,,,
,,,,,,,,,,,,,,,,,,,,,,,,,,,,,,,,,,
,,,,,,,,,,,,,,,,,,,,,,,,,,,,,,,,,,
,,,,,,,,,,,,,,,,,,,,,,,,,,,,,,,,,,
,,,,,,,,,,,,,,,,,,,,,,,,,,,,,,,,,,
,,,,,,,,,,,,,,,,,,,,,,,,,,,,,,,,,,
,,,,,,,,,,,,,,,,,,,,,,,,,,,,,,,,,,
,,,,,,,,,,,,,,,,,,,,,,,,,,,,,,,,,,
,,,,,,,,,,,,,,,,,,,,,,,,,,,,,,,,,,
,,,,,,,,,,,,,,,,,,,,,,,,,,,,,,,,,,
,,,,,,,,,,,,,,,,,,,,,,,,,,,,,,,,,,
,,,,,,,,,,,,,,,,,,,,,,,,,,,,,,,,,,
,,,,,,,,,,,,,,,,,,,,,,,,,,,,,,,,,,
,,,,,,,,,,,,,,,,,,,,,,,,,,,,,,,,,,
,,,,,,,,,,,,,,,,,,,,,,,,,,,,,,,,,,
,,,,,,,,,,,,,,,,,,,,,,,,,,,,,,,,,,
,,,,,,,,,,,,,,,,,,,,,,,,,,,,,,,,,,
,,,,,,,,,,,,,,,,,,,,,,,,,,,,,,,,,,
,,,,,,,,,,,,,,,,,,,,,,,,,,,,,,,,,,
,,,,,,,,,,,,,,,,,,,,,,,,,,,,,,,,,,
,,,,,,,,,,,,,,,,,,,,,,,,,,,,,,,,,,
,,,,,,,,,,,,,,,,,,,,,,,,,,,,,,,,,,
,,,,,,,,,,,,,,,,,,,,,,,,,,,,,,,,,,
,,,,,,,,,,,,,,,,,,,,,,,,,,,,,,,,,,
,,,,,,,,,,,,,,,,,,,,,,,,,,,,,,,,,,
,,,,,,,,,,,,,,,,,,,,,,,,,,,,,,,,,,
,,,,,,,,,,,,,,,,,,,,,,,,,,,,,,,,,,
,,,,,,,,,,,,,,,,,,,,,,,,,,,,,,,,,,
,,,,,,,,,,,,,,,,,,,,,,,,,,,,,,,,,,
,,,,,,,,,,,,,,,,,,,,,,,,,,,,,,,,,,
,,,,,,,,,,,,,,,,,,,,,,,,,,,,,,,,,,
,,,,,,,,,,,,,,,,,,,,,,,,,,,,,,,,,,
,,,,,,,,,,,,,,,,,,,,,,,,,,,,,,,,,,
,,,,,,,,,,,,,,,,,,,,,,,,,,,,,,,,,,
,,,,,,,,,,,,,,,,,,,,,,,,,,,,,,,,,,
,,,,,,,,,,,,,,,,,,,,,,,,,,,,,,,,,,
,,,,,,,,,,,,,,,,,,,,,,,,,,,,,,,,,,
,,,,,,,,,,,,,,,,,,,,,,,,,,,,,,,,,,
,,,,,,,,,,,,,,,,,,,,,,,,,,,,,,,,,,
,,,,,,,,,,,,,,,,,,,,,,,,,,,,,,,,,,
,,,,,,,,,,,,,,,,,,,,,,,,,,,,,,,,,,
,,,,,,,,,,,,,,,,,,,,,,,,,,,,,,,,,,
,,,,,,,,,,,,,,,,,,,,,,,,,,,,,,,,,,
,,,,,,,,,,,,,,,,,,,,,,,,,,,,,,,,,,
,,,,,,,,,,,,,,,,,,,,,,,,,,,,,,,,,,
,,,,,,,,,,,,,,,,,,,,,,,,,,,,,,,,,,
,,,,,,,,,,,,,,,,,,,,,,,,,,,,,,,,,,
,,,,,,,,,,,,,,,,,,,,,,,,,,,,,,,,,,
,,,,,,,,,,,,,,,,,,,,,,,,,,,,,,,,,,
,,,,,,,,,,,,,,,,,,,,,,,,,,,,,,,,,,
,,,,,,,,,,,,,,,,,,,,,,,,,,,,,,,,,,
,,,,,,,,,,,,,,,,,,,,,,,,,,,,,,,,,,
,,,,,,,,,,,,,,,,,,,,,,,,,,,,,,,,,,
,,,,,,,,,,,,,,,,,,,,,,,,,,,,,,,,,,
,,,,,,,,,,,,,,,,,,,,,,,,,,,,,,,,,,
,,,,,,,,,,,,,,,,,,,,,,,,,,,,,,,,,,
,,,,,,,,,,,,,,,,,,,,,,,,,,,,,,,,,,
,,,,,,,,,,,,,,,,,,,,,,,,,,,,,,,,,,
,,,,,,,,,,,,,,,,,,,,,,,,,,,,,,,,,,
,,,,,,,,,,,,,,,,,,,,,,,,,,,,,,,,,,
,,,,,,,,,,,,,,,,,,,,,,,,,,,,,,,,,,
,,,,,,,,,,,,,,,,,,,,,,,,,,,,,,,,,,
,,,,,,,,,,,,,,,,,,,,,,,,,,,,,,,,,,
,,,,,,,,,,,,,,,,,,,,,,,,,,,,,,,,,,
,,,,,,,,,,,,,,,,,,,,,,,,,,,,,,,,,,
,,,,,,,,,,,,,,,,,,,,,,,,,,,,,,,,,,
,,,,,,,,,,,,,,,,,,,,,,,,,,,,,,,,,,
,,,,,,,,,,,,,,,,,,,,,,,,,,,,,,,,,,
,,,,,,,,,,,,,,,,,,,,,,,,,,,,,,,,,,
,,,,,,,,,,,,,,,,,,,,,,,,,,,,,,,,,,
,,,,,,,,,,,,,,,,,,,,,,,,,,,,,,,,,,
,,,,,,,,,,,,,,,,,,,,,,,,,,,,,,,,,,
,,,,,,,,,,,,,,,,,,,,,,,,,,,,,,,,,,
,,,,,,,,,,,,,,,,,,,,,,,,,,,,,,,,,,
,,,,,,,,,,,,,,,,,,,,,,,,,,,,,,,,,,
,,,,,,,,,,,,,,,,,,,,,,,,,,,,,,,,,,
,,,,,,,,,,,,,,,,,,,,,,,,,,,,,,,,,,
,,,,,,,,,,,,,,,,,,,,,,,,,,,,,,,,,,
,,,,,,,,,,,,,,,,,,,,,,,,,,,,,,,,,,
,,,,,,,,,,,,,,,,,,,,,,,,,,,,,,,,,,
,,,,,,,,,,,,,,,,,,,,,,,,,,,,,,,,,,
,,,,,,,,,,,,,,,,,,,,,,,,,,,,,,,,,,
,,,,,,,,,,,,,,,,,,,,,,,,,,,,,,,,,,
,,,,,,,,,,,,,,,,,,,,,,,,,,,,,,,,,,
,,,,,,,,,,,,,,,,,,,,,,,,,,,,,,,,,,
,,,,,,,,,,,,,,,,,,,,,,,,,,,,,,,,,,
,,,,,,,,,,,,,,,,,,,,,,,,,,,,,,,,,,
,,,,,,,,,,,,,,,,,,,,,,,,,,,,,,,,,,
,,,,,,,,,,,,,,,,,,,,,,,,,,,,,,,,,,
,,,,,,,,,,,,,,,,,,,,,,,,,,,,,,,,,,
,,,,,,,,,,,,,,,,,,,,,,,,,,,,,,,,,,
,,,,,,,,,,,,,,,,,,,,,,,,,,,,,,,,,,
,,,,,,,,,,,,,,,,,,,,,,,,,,,,,,,,,,
,,,,,,,,,,,,,,,,,,,,,,,,,,,,,,,,,,
,,,,,,,,,,,,,,,,,,,,,,,,,,,,,,,,,,
,,,,,,,,,,,,,,,,,,,,,,,,,,,,,,,,,,
,,,,,,,,,,,,,,,,,,,,,,,,,,,,,,,,,,
,,,,,,,,,,,,,,,,,,,,,,,,,,,,,,,,,,
,,,,,,,,,,,,,,,,,,,,,,,,,,,,,,,,,,
,,,,,,,,,,,,,,,,,,,,,,,,,,,,,,,,,,
,,,,,,,,,,,,,,,,,,,,,,,,,,,,,,,,,,
,,,,,,,,,,,,,,,,,,,,,,,,,,,,,,,,,,
,,,,,,,,,,,,,,,,,,,,,,,,,,,,,,,,,,
,,,,,,,,,,,,,,,,,,,,,,,,,,,,,,,,,,
,,,,,,,,,,,,,,,,,,,,,,,,,,,,,,,,,,
,,,,,,,,,,,,,,,,,,,,,,,,,,,,,,,,,,
,,,,,,,,,,,,,,,,,,,,,,,,,,,,,,,,,,
,,,,,,,,,,,,,,,,,,,,,,,,,,,,,,,,,,
,,,,,,,,,,,,,,,,,,,,,,,,,,,,,,,,,,
,,,,,,,,,,,,,,,,,,,,,,,,,,,,,,,,,,
,,,,,,,,,,,,,,,,,,,,,,,,,,,,,,,,,,
,,,,,,,,,,,,,,,,,,,,,,,,,,,,,,,,,,
,,,,,,,,,,,,,,,,,,,,,,,,,,,,,,,,,,
,,,,,,,,,,,,,,,,,,,,,,,,,,,,,,,,,,
,,,,,,,,,,,,,,,,,,,,,,,,,,,,,,,,,,
,,,,,,,,,,,,,,,,,,,,,,,,,,,,,,,,,,
,,,,,,,,,,,,,,,,,,,,,,,,,,,,,,,,,,
,,,,,,,,,,,,,,,,,,,,,,,,,,,,,,,,,,
,,,,,,,,,,,,,,,,,,,,,,,,,,,,,,,,,,
,,,,,,,,,,,,,,,,,,,,,,,,,,,,,,,,,,
,,,,,,,,,,,,,,,,,,,,,,,,,,,,,,,,,,
,,,,,,,,,,,,,,,,,,,,,,,,,,,,,,,,,,
,,,,,,,,,,,,,,,,,,,,,,,,,,,,,,,,,,
,,,,,,,,,,,,,,,,,,,,,,,,,,,,,,,,,,
,,,,,,,,,,,,,,,,,,,,,,,,,,,,,,,,,,
,,,,,,,,,,,,,,,,,,,,,,,,,,,,,,,,,,
,,,,,,,,,,,,,,,,,,,,,,,,,,,,,,,,,,
,,,,,,,,,,,,,,,,,,,,,,,,,,,,,,,,,,
,,,,,,,,,,,,,,,,,,,,,,,,,,,,,,,,,,
,,,,,,,,,,,,,,,,,,,,,,,,,,,,,,,,,,
,,,,,,,,,,,,,,,,,,,,,,,,,,,,,,,,,,
,,,,,,,,,,,,,,,,,,,,,,,,,,,,,,,,,,
,,,,,,,,,,,,,,,,,,,,,,,,,,,,,,,,,,
,,,,,,,,,,,,,,,,,,,,,,,,,,,,,,,,,,
,,,,,,,,,,,,,,,,,,,,,,,,,,,,,,,,,,
,,,,,,,,,,,,,,,,,,,,,,,,,,,,,,,,,,
,,,,,,,,,,,,,,,,,,,,,,,,,,,,,,,,,,
,,,,,,,,,,,,,,,,,,,,,,,,,,,,,,,,,,
,,,,,,,,,,,,,,,,,,,,,,,,,,,,,,,,,,
,,,,,,,,,,,,,,,,,,,,,,,,,,,,,,,,,,
,,,,,,,,,,,,,,,,,,,,,,,,,,,,,,,,,,
,,,,,,,,,,,,,,,,,,,,,,,,,,,,,,,,,,
,,,,,,,,,,,,,,,,,,,,,,,,,,,,,,,,,,
,,,,,,,,,,,,,,,,,,,,,,,,,,,,,,,,,,
,,,,,,,,,,,,,,,,,,,,,,,,,,,,,,,,,,
,,,,,,,,,,,,,,,,,,,,,,,,,,,,,,,,,,
,,,,,,,,,,,,,,,,,,,,,,,,,,,,,,,,,,
,,,,,,,,,,,,,,,,,,,,,,,,,,,,,,,,,,
,,,,,,,,,,,,,,,,,,,,,,,,,,,,,,,,,,
,,,,,,,,,,,,,,,,,,,,,,,,,,,,,,,,,,
,,,,,,,,,,,,,,,,,,,,,,,,,,,,,,,,,,
,,,,,,,,,,,,,,,,,,,,,,,,,,,,,,,,,,
,,,,,,,,,,,,,,,,,,,,,,,,,,,,,,,,,,
,,,,,,,,,,,,,,,,,,,,,,,,,,,,,,,,,,
,,,,,,,,,,,,,,,,,,,,,,,,,,,,,,,,,,
,,,,,,,,,,,,,,,,,,,,,,,,,,,,,,,,,,
,,,,,,,,,,,,,,,,,,,,,,,,,,,,,,,,,,
,,,,,,,,,,,,,,,,,,,,,,,,,,,,,,,,,,
,,,,,,,,,,,,,,,,,,,,,,,,,,,,,,,,,,
,,,,,,,,,,,,,,,,,,,,,,,,,,,,,,,,,,
,,,,,,,,,,,,,,,,,,,,,,,,,,,,,,,,,,
,,,,,,,,,,,,,,,,,,,,,,,,,,,,,,,,,,
,,,,,,,,,,,,,,,,,,,,,,,,,,,,,,,,,,
,,,,,,,,,,,,,,,,,,,,,,,,,,,,,,,,,,
,,,,,,,,,,,,,,,,,,,,,,,,,,,,,,,,,,
,,,,,,,,,,,,,,,,,,,,,,,,,,,,,,,,,,
,,,,,,,,,,,,,,,,,,,,,,,,,,,,,,,,,,
,,,,,,,,,,,,,,,,,,,,,,,,,,,,,,,,,,
,,,,,,,,,,,,,,,,,,,,,,,,,,,,,,,,,,
,,,,,,,,,,,,,,,,,,,,,,,,,,,,,,,,,,
,,,,,,,,,,,,,,,,,,,,,,,,,,,,,,,,,,
,,,,,,,,,,,,,,,,,,,,,,,,,,,,,,,,,,
,,,,,,,,,,,,,,,,,,,,,,,,,,,,,,,,,,
,,,,,,,,,,,,,,,,,,,,,,,,,,,,,,,,,,
,,,,,,,,,,,,,,,,,,,,,,,,,,,,,,,,,,
,,,,,,,,,,,,,,,,,,,,,,,,,,,,,,,,,,
,,,,,,,,,,,,,,,,,,,,,,,,,,,,,,,,,,
,,,,,,,,,,,,,,,,,,,,,,,,,,,,,,,,,,
,,,,,,,,,,,,,,,,,,,,,,,,,,,,,,,,,,
,,,,,,,,,,,,,,,,,,,,,,,,,,,,,,,,,,
,,,,,,,,,,,,,,,,,,,,,,,,,,,,,,,,,,
,,,,,,,,,,,,,,,,,,,,,,,,,,,,,,,,,,
,,,,,,,,,,,,,,,,,,,,,,,,,,,,,,,,,,
,,,,,,,,,,,,,,,,,,,,,,,,,,,,,,,,,,
,,,,,,,,,,,,,,,,,,,,,,,,,,,,,,,,,,
,,,,,,,,,,,,,,,,,,,,,,,,,,,,,,,,,,
,,,,,,,,,,,,,,,,,,,,,,,,,,,,,,,,,,
,,,,,,,,,,,,,,,,,,,,,,,,,,,,,,,,,,
,,,,,,,,,,,,,,,,,,,,,,,,,,,,,,,,,,
,,,,,,,,,,,,,,,,,,,,,,,,,,,,,,,,,,
,,,,,,,,,,,,,,,,,,,,,,,,,,,,,,,,,,
,,,,,,,,,,,,,,,,,,,,,,,,,,,,,,,,,,
,,,,,,,,,,,,,,,,,,,,,,,,,,,,,,,,,,
,,,,,,,,,,,,,,,,,,,,,,,,,,,,,,,,,,
,,,,,,,,,,,,,,,,,,,,,,,,,,,,,,,,,,
,,,,,,,,,,,,,,,,,,,,,,,,,,,,,,,,,,
,,,,,,,,,,,,,,,,,,,,,,,,,,,,,,,,,,
,,,,,,,,,,,,,,,,,,,,,,,,,,,,,,,,,,
,,,,,,,,,,,,,,,,,,,,,,,,,,,,,,,,,,
,,,,,,,,,,,,,,,,,,,,,,,,,,,,,,,,,,
,,,,,,,,,,,,,,,,,,,,,,,,,,,,,,,,,,
,,,,,,,,,,,,,,,,,,,,,,,,,,,,,,,,,,
,,,,,,,,,,,,,,,,,,,,,,,,,,,,,,,,,,
,,,,,,,,,,,,,,,,,,,,,,,,,,,,,,,,,,
,,,,,,,,,,,,,,,,,,,,,,,,,,,,,,,,,,
,,,,,,,,,,,,,,,,,,,,,,,,,,,,,,,,,,
,,,,,,,,,,,,,,,,,,,,,,,,,,,,,,,,,,
,,,,,,,,,,,,,,,,,,,,,,,,,,,,,,,,,,
,,,,,,,,,,,,,,,,,,,,,,,,,,,,,,,,,,
,,,,,,,,,,,,,,,,,,,,,,,,,,,,,,,,,,
,,,,,,,,,,,,,,,,,,,,,,,,,,,,,,,,,,
,,,,,,,,,,,,,,,,,,,,,,,,,,,,,,,,,,
,,,,,,,,,,,,,,,,,,,,,,,,,,,,,,,,,,
,,,,,,,,,,,,,,,,,,,,,,,,,,,,,,,,,,
,,,,,,,,,,,,,,,,,,,,,,,,,,,,,,,,,,
,,,,,,,,,,,,,,,,,,,,,,,,,,,,,,,,,,
,,,,,,,,,,,,,,,,,,,,,,,,,,,,,,,,,,
,,,,,,,,,,,,,,,,,,,,,,,,,,,,,,,,,,
,,,,,,,,,,,,,,,,,,,,,,,,,,,,,,,,,,
,,,,,,,,,,,,,,,,,,,,,,,,,,,,,,,,,,
,,,,,,,,,,,,,,,,,,,,,,,,,,,,,,,,,,
,,,,,,,,,,,,,,,,,,,,,,,,,,,,,,,,,,
,,,,,,,,,,,,,,,,,,,,,,,,,,,,,,,,,,
,,,,,,,,,,,,,,,,,,,,,,,,,,,,,,,,,,
,,,,,,,,,,,,,,,,,,,,,,,,,,,,,,,,,,
,,,,,,,,,,,,,,,,,,,,,,,,,,,,,,,,,,
,,,,,,,,,,,,,,,,,,,,,,,,,,,,,,,,,,
,,,,,,,,,,,,,,,,,,,,,,,,,,,,,,,,,,
,,,,,,,,,,,,,,,,,,,,,,,,,,,,,,,,,,
,,,,,,,,,,,,,,,,,,,,,,,,,,,,,,,,,,
,,,,,,,,,,,,,,,,,,,,,,,,,,,,,,,,,,
,,,,,,,,,,,,,,,,,,,,,,,,,,,,,,,,,,
,,,,,,,,,,,,,,,,,,,,,,,,,,,,,,,,,,
,,,,,,,,,,,,,,,,,,,,,,,,,,,,,,,,,,
,,,,,,,,,,,,,,,,,,,,,,,,,,,,,,,,,,
,,,,,,,,,,,,,,,,,,,,,,,,,,,,,,,,,,
,,,,,,,,,,,,,,,,,,,,,,,,,,,,,,,,,,
,,,,,,,,,,,,,,,,,,,,,,,,,,,,,,,,,,
,,,,,,,,,,,,,,,,,,,,,,,,,,,,,,,,,,
,,,,,,,,,,,,,,,,,,,,,,,,,,,,,,,,,,
,,,,,,,,,,,,,,,,,,,,,,,,,,,,,,,,,,
,,,,,,,,,,,,,,,,,,,,,,,,,,,,,,,,,,
,,,,,,,,,,,,,,,,,,,,,,,,,,,,,,,,,,
,,,,,,,,,,,,,,,,,,,,,,,,,,,,,,,,,,
,,,,,,,,,,,,,,,,,,,,,,,,,,,,,,,,,,
,,,,,,,,,,,,,,,,,,,,,,,,,,,,,,,,,,
,,,,,,,,,,,,,,,,,,,,,,,,,,,,,,,,,,
,,,,,,,,,,,,,,,,,,,,,,,,,,,,,,,,,,
,,,,,,,,,,,,,,,,,,,,,,,,,,,,,,,,,,
,,,,,,,,,,,,,,,,,,,,,,,,,,,,,,,,,,
,,,,,,,,,,,,,,,,,,,,,,,,,,,,,,,,,,
,,,,,,,,,,,,,,,,,,,,,,,,,,,,,,,,,,
,,,,,,,,,,,,,,,,,,,,,,,,,,,,,,,,,,
,,,,,,,,,,,,,,,,,,,,,,,,,,,,,,,,,,
,,,,,,,,,,,,,,,,,,,,,,,,,,,,,,,,,,
,,,,,,,,,,,,,,,,,,,,,,,,,,,,,,,,,,
,,,,,,,,,,,,,,,,,,,,,,,,,,,,,,,,,,
,,,,,,,,,,,,,,,,,,,,,,,,,,,,,,,,,,
,,,,,,,,,,,,,,,,,,,,,,,,,,,,,,,,,,
,,,,,,,,,,,,,,,,,,,,,,,,,,,,,,,,,,
,,,,,,,,,,,,,,,,,,,,,,,,,,,,,,,,,,
,,,,,,,,,,,,,,,,,,,,,,,,,,,,,,,,,,
,,,,,,,,,,,,,,,,,,,,,,,,,,,,,,,,,,
,,,,,,,,,,,,,,,,,,,,,,,,,,,,,,,,,,
,,,,,,,,,,,,,,,,,,,,,,,,,,,,,,,,,,
,,,,,,,,,,,,,,,,,,,,,,,,,,,,,,,,,,
,,,,,,,,,,,,,,,,,,,,,,,,,,,,,,,,,,
,,,,,,,,,,,,,,,,,,,,,,,,,,,,,,,,,,
,,,,,,,,,,,,,,,,,,,,,,,,,,,,,,,,,,
,,,,,,,,,,,,,,,,,,,,,,,,,,,,,,,,,,
,,,,,,,,,,,,,,,,,,,,,,,,,,,,,,,,,,
,,,,,,,,,,,,,,,,,,,,,,,,,,,,,,,,,,
,,,,,,,,,,,,,,,,,,,,,,,,,,,,,,,,,,
,,,,,,,,,,,,,,,,,,,,,,,,,,,,,,,,,,
,,,,,,,,,,,,,,,,,,,,,,,,,,,,,,,,,,
,,,,,,,,,,,,,,,,,,,,,,,,,,,,,,,,,,
,,,,,,,,,,,,,,,,,,,,,,,,,,,,,,,,,,
,,,,,,,,,,,,,,,,,,,,,,,,,,,,,,,,,,
,,,,,,,,,,,,,,,,,,,,,,,,,,,,,,,,,,
,,,,,,,,,,,,,,,,,,,,,,,,,,,,,,,,,,
,,,,,,,,,,,,,,,,,,,,,,,,,,,,,,,,,,
,,,,,,,,,,,,,,,,,,,,,,,,,,,,,,,,,,
,,,,,,,,,,,,,,,,,,,,,,,,,,,,,,,,,,
,,,,,,,,,,,,,,,,,,,,,,,,,,,,,,,,,,
,,,,,,,,,,,,,,,,,,,,,,,,,,,,,,,,,,
,,,,,,,,,,,,,,,,,,,,,,,,,,,,,,,,,,
,,,,,,,,,,,,,,,,,,,,,,,,,,,,,,,,,,
,,,,,,,,,,,,,,,,,,,,,,,,,,,,,,,,,,
,,,,,,,,,,,,,,,,,,,,,,,,,,,,,,,,,,
,,,,,,,,,,,,,,,,,,,,,,,,,,,,,,,,,,
,,,,,,,,,,,,,,,,,,,,,,,,,,,,,,,,,,
,,,,,,,,,,,,,,,,,,,,,,,,,,,,,,,,,,
,,,,,,,,,,,,,,,,,,,,,,,,,,,,,,,,,,
,,,,,,,,,,,,,,,,,,,,,,,,,,,,,,,,,,
,,,,,,,,,,,,,,,,,,,,,,,,,,,,,,,,,,
,,,,,,,,,,,,,,,,,,,,,,,,,,,,,,,,,,
,,,,,,,,,,,,,,,,,,,,,,,,,,,,,,,,,,
,,,,,,,,,,,,,,,,,,,,,,,,,,,,,,,,,,
,,,,,,,,,,,,,,,,,,,,,,,,,,,,,,,,,,
,,,,,,,,,,,,,,,,,,,,,,,,,,,,,,,,,,
,,,,,,,,,,,,,,,,,,,,,,,,,,,,,,,,,,
,,,,,,,,,,,,,,,,,,,,,,,,,,,,,,,,,,
,,,,,,,,,,,,,,,,,,,,,,,,,,,,,,,,,,
,,,,,,,,,,,,,,,,,,,,,,,,,,,,,,,,,,
,,,,,,,,,,,,,,,,,,,,,,,,,,,,,,,,,,
,,,,,,,,,,,,,,,,,,,,,,,,,,,,,,,,,,
,,,,,,,,,,,,,,,,,,,,,,,,,,,,,,,,,,
,,,,,,,,,,,,,,,,,,,,,,,,,,,,,,,,,,
,,,,,,,,,,,,,,,,,,,,,,,,,,,,,,,,,,
,,,,,,,,,,,,,,,,,,,,,,,,,,,,,,,,,,
,,,,,,,,,,,,,,,,,,,,,,,,,,,,,,,,,,
,,,,,,,,,,,,,,,,,,,,,,,,,,,,,,,,,,
,,,,,,,,,,,,,,,,,,,,,,,,,,,,,,,,,,
,,,,,,,,,,,,,,,,,,,,,,,,,,,,,,,,,,
,,,,,,,,,,,,,,,,,,,,,,,,,,,,,,,,,,
,,,,,,,,,,,,,,,,,,,,,,,,,,,,,,,,,,
,,,,,,,,,,,,,,,,,,,,,,,,,,,,,,,,,,
,,,,,,,,,,,,,,,,,,,,,,,,,,,,,,,,,,
,,,,,,,,,,,,,,,,,,,,,,,,,,,,,,,,,,
,,,,,,,,,,,,,,,,,,,,,,,,,,,,,,,,,,
,,,,,,,,,,,,,,,,,,,,,,,,,,,,,,,,,,
,,,,,,,,,,,,,,,,,,,,,,,,,,,,,,,,,,
,,,,,,,,,,,,,,,,,,,,,,,,,,,,,,,,,,
,,,,,,,,,,,,,,,,,,,,,,,,,,,,,,,,,,
,,,,,,,,,,,,,,,,,,,,,,,,,,,,,,,,,,
,,,,,,,,,,,,,,,,,,,,,,,,,,,,,,,,,,
,,,,,,,,,,,,,,,,,,,,,,,,,,,,,,,,,,
,,,,,,,,,,,,,,,,,,,,,,,,,,,,,,,,,,
,,,,,,,,,,,,,,,,,,,,,,,,,,,,,,,,,,
,,,,,,,,,,,,,,,,,,,,,,,,,,,,,,,,,,
,,,,,,,,,,,,,,,,,,,,,,,,,,,,,,,,,,
,,,,,,,,,,,,,,,,,,,,,,,,,,,,,,,,,,
,,,,,,,,,,,,,,,,,,,,,,,,,,,,,,,,,,
,,,,,,,,,,,,,,,,,,,,,,,,,,,,,,,,,,
,,,,,,,,,,,,,,,,,,,,,,,,,,,,,,,,,,
,,,,,,,,,,,,,,,,,,,,,,,,,,,,,,,,,,
,,,,,,,,,,,,,,,,,,,,,,,,,,,,,,,,,,
,,,,,,,,,,,,,,,,,,,,,,,,,,,,,,,,,,
,,,,,,,,,,,,,,,,,,,,,,,,,,,,,,,,,,
,,,,,,,,,,,,,,,,,,,,,,,,,,,,,,,,,,
,,,,,,,,,,,,,,,,,,,,,,,,,,,,,,,,,,
,,,,,,,,,,,,,,,,,,,,,,,,,,,,,,,,,,
,,,,,,,,,,,,,,,,,,,,,,,,,,,,,,,,,,
,,,,,,,,,,,,,,,,,,,,,,,,,,,,,,,,,,
,,,,,,,,,,,,,,,,,,,,,,,,,,,,,,,,,,
,,,,,,,,,,,,,,,,,,,,,,,,,,,,,,,,,,
,,,,,,,,,,,,,,,,,,,,,,,,,,,,,,,,,,
,,,,,,,,,,,,,,,,,,,,,,,,,,,,,,,,,,
,,,,,,,,,,,,,,,,,,,,,,,,,,,,,,,,,,
,,,,,,,,,,,,,,,,,,,,,,,,,,,,,,,,,,
,,,,,,,,,,,,,,,,,,,,,,,,,,,,,,,,,,
,,,,,,,,,,,,,,,,,,,,,,,,,,,,,,,,,,
,,,,,,,,,,,,,,,,,,,,,,,,,,,,,,,,,,
,,,,,,,,,,,,,,,,,,,,,,,,,,,,,,,,,,
,,,,,,,,,,,,,,,,,,,,,,,,,,,,,,,,,,
,,,,,,,,,,,,,,,,,,,,,,,,,,,,,,,,,,
,,,,,,,,,,,,,,,,,,,,,,,,,,,,,,,,,,
,,,,,,,,,,,,,,,,,,,,,,,,,,,,,,,,,,
,,,,,,,,,,,,,,,,,,,,,,,,,,,,,,,,,,
,,,,,,,,,,,,,,,,,,,,,,,,,,,,,,,,,,
,,,,,,,,,,,,,,,,,,,,,,,,,,,,,,,,,,
,,,,,,,,,,,,,,,,,,,,,,,,,,,,,,,,,,
,,,,,,,,,,,,,,,,,,,,,,,,,,,,,,,,,,
,,,,,,,,,,,,,,,,,,,,,,,,,,,,,,,,,,
,,,,,,,,,,,,,,,,,,,,,,,,,,,,,,,,,,
,,,,,,,,,,,,,,,,,,,,,,,,,,,,,,,,,,
,,,,,,,,,,,,,,,,,,,,,,,,,,,,,,,,,,
,,,,,,,,,,,,,,,,,,,,,,,,,,,,,,,,,,
,,,,,,,,,,,,,,,,,,,,,,,,,,,,,,,,,,
,,,,,,,,,,,,,,,,,,,,,,,,,,,,,,,,,,
,,,,,,,,,,,,,,,,,,,,,,,,,,,,,,,,,,
,,,,,,,,,,,,,,,,,,,,,,,,,,,,,,,,,,
,,,,,,,,,,,,,,,,,,,,,,,,,,,,,,,,,,
,,,,,,,,,,,,,,,,,,,,,,,,,,,,,,,,,,
,,,,,,,,,,,,,,,,,,,,,,,,,,,,,,,,,,
,,,,,,,,,,,,,,,,,,,,,,,,,,,,,,,,,,
,,,,,,,,,,,,,,,,,,,,,,,,,,,,,,,,,,
,,,,,,,,,,,,,,,,,,,,,,,,,,,,,,,,,,
,,,,,,,,,,,,,,,,,,,,,,,,,,,,,,,,,,
,,,,,,,,,,,,,,,,,,,,,,,,,,,,,,,,,,
,,,,,,,,,,,,,,,,,,,,,,,,,,,,,,,,,,
,,,,,,,,,,,,,,,,,,,,,,,,,,,,,,,,,,
,,,,,,,,,,,,,,,,,,,,,,,,,,,,,,,,,,
,,,,,,,,,,,,,,,,,,,,,,,,,,,,,,,,,,
,,,,,,,,,,,,,,,,,,,,,,,,,,,,,,,,,,
,,,,,,,,,,,,,,,,,,,,,,,,,,,,,,,,,,
,,,,,,,,,,,,,,,,,,,,,,,,,,,,,,,,,,
,,,,,,,,,,,,,,,,,,,,,,,,,,,,,,,,,,
,,,,,,,,,,,,,,,,,,,,,,,,,,,,,,,,,,
,,,,,,,,,,,,,,,,,,,,,,,,,,,,,,,,,,
,,,,,,,,,,,,,,,,,,,,,,,,,,,,,,,,,,
,,,,,,,,,,,,,,,,,,,,,,,,,,,,,,,,,,
,,,,,,,,,,,,,,,,,,,,,,,,,,,,,,,,,,
,,,,,,,,,,,,,,,,,,,,,,,,,,,,,,,,,,
,,,,,,,,,,,,,,,,,,,,,,,,,,,,,,,,,,
,,,,,,,,,,,,,,,,,,,,,,,,,,,,,,,,,,
,,,,,,,,,,,,,,,,,,,,,,,,,,,,,,,,,,
,,,,,,,,,,,,,,,,,,,,,,,,,,,,,,,,,,
,,,,,,,,,,,,,,,,,,,,,,,,,,,,,,,,,,
,,,,,,,,,,,,,,,,,,,,,,,,,,,,,,,,,,
,,,,,,,,,,,,,,,,,,,,,,,,,,,,,,,,,,
,,,,,,,,,,,,,,,,,,,,,,,,,,,,,,,,,,
,,,,,,,,,,,,,,,,,,,,,,,,,,,,,,,,,,
,,,,,,,,,,,,,,,,,,,,,,,,,,,,,,,,,,
,,,,,,,,,,,,,,,,,,,,,,,,,,,,,,,,,,
,,,,,,,,,,,,,,,,,,,,,,,,,,,,,,,,,,
,,,,,,,,,,,,,,,,,,,,,,,,,,,,,,,,,,
,,,,,,,,,,,,,,,,,,,,,,,,,,,,,,,,,,
,,,,,,,,,,,,,,,,,,,,,,,,,,,,,,,,,,
,,,,,,,,,,,,,,,,,,,,,,,,,,,,,,,,,,
,,,,,,,,,,,,,,,,,,,,,,,,,,,,,,,,,,
,,,,,,,,,,,,,,,,,,,,,,,,,,,,,,,,,,
,,,,,,,,,,,,,,,,,,,,,,,,,,,,,,,,,,
,,,,,,,,,,,,,,,,,,,,,,,,,,,,,,,,,,
,,,,,,,,,,,,,,,,,,,,,,,,,,,,,,,,,,
,,,,,,,,,,,,,,,,,,,,,,,,,,,,,,,,,,
,,,,,,,,,,,,,,,,,,,,,,,,,,,,,,,,,,
,,,,,,,,,,,,,,,,,,,,,,,,,,,,,,,,,,
,,,,,,,,,,,,,,,,,,,,,,,,,,,,,,,,,,
,,,,,,,,,,,,,,,,,,,,,,,,,,,,,,,,,,
,,,,,,,,,,,,,,,,,,,,,,,,,,,,,,,,,,
,,,,,,,,,,,,,,,,,,,,,,,,,,,,,,,,,,
,,,,,,,,,,,,,,,,,,,,,,,,,,,,,,,,,,
,,,,,,,,,,,,,,,,,,,,,,,,,,,,,,,,,,
,,,,,,,,,,,,,,,,,,,,,,,,,,,,,,,,,,
,,,,,,,,,,,,,,,,,,,,,,,,,,,,,,,,,,
,,,,,,,,,,,,,,,,,,,,,,,,,,,,,,,,,,
,,,,,,,,,,,,,,,,,,,,,,,,,,,,,,,,,,
,,,,,,,,,,,,,,,,,,,,,,,,,,,,,,,,,,
,,,,,,,,,,,,,,,,,,,,,,,,,,,,,,,,,,
,,,,,,,,,,,,,,,,,,,,,,,,,,,,,,,,,,
,,,,,,,,,,,,,,,,,,,,,,,,,,,,,,,,,,
,,,,,,,,,,,,,,,,,,,,,,,,,,,,,,,,,,
,,,,,,,,,,,,,,,,,,,,,,,,,,,,,,,,,,
,,,,,,,,,,,,,,,,,,,,,,,,,,,,,,,,,,
,,,,,,,,,,,,,,,,,,,,,,,,,,,,,,,,,,
,,,,,,,,,,,,,,,,,,,,,,,,,,,,,,,,,,
,,,,,,,,,,,,,,,,,,,,,,,,,,,,,,,,,,
,,,,,,,,,,,,,,,,,,,,,,,,,,,,,,,,,,
,,,,,,,,,,,,,,,,,,,,,,,,,,,,,,,,,,
,,,,,,,,,,,,,,,,,,,,,,,,,,,,,,,,,,
,,,,,,,,,,,,,,,,,,,,,,,,,,,,,,,,,,
,,,,,,,,,,,,,,,,,,,,,,,,,,,,,,,,,,
,,,,,,,,,,,,,,,,,,,,,,,,,,,,,,,,,,
,,,,,,,,,,,,,,,,,,,,,,,,,,,,,,,,,,
,,,,,,,,,,,,,,,,,,,,,,,,,,,,,,,,,,
,,,,,,,,,,,,,,,,,,,,,,,,,,,,,,,,,,
,,,,,,,,,,,,,,,,,,,,,,,,,,,,,,,,,,
,,,,,,,,,,,,,,,,,,,,,,,,,,,,,,,,,,
,,,,,,,,,,,,,,,,,,,,,,,,,,,,,,,,,,
,,,,,,,,,,,,,,,,,,,,,,,,,,,,,,,,,,
,,,,,,,,,,,,,,,,,,,,,,,,,,,,,,,,,,
,,,,,,,,,,,,,,,,,,,,,,,,,,,,,,,,,,
,,,,,,,,,,,,,,,,,,,,,,,,,,,,,,,,,,
,,,,,,,,,,,,,,,,,,,,,,,,,,,,,,,,,,
,,,,,,,,,,,,,,,,,,,,,,,,,,,,,,,,,,
,,,,,,,,,,,,,,,,,,,,,,,,,,,,,,,,,,
,,,,,,,,,,,,,,,,,,,,,,,,,,,,,,,,,,
,,,,,,,,,,,,,,,,,,,,,,,,,,,,,,,,,,
,,,,,,,,,,,,,,,,,,,,,,,,,,,,,,,,,,
,,,,,,,,,,,,,,,,,,,,,,,,,,,,,,,,,,
,,,,,,,,,,,,,,,,,,,,,,,,,,,,,,,,,,
,,,,,,,,,,,,,,,,,,,,,,,,,,,,,,,,,,
,,,,,,,,,,,,,,,,,,,,,,,,,,,,,,,,,,
,,,,,,,,,,,,,,,,,,,,,,,,,,,,,,,,,,
,,,,,,,,,,,,,,,,,,,,,,,,,,,,,,,,,,
,,,,,,,,,,,,,,,,,,,,,,,,,,,,,,,,,,
,,,,,,,,,,,,,,,,,,,,,,,,,,,,,,,,,,
,,,,,,,,,,,,,,,,,,,,,,,,,,,,,,,,,,
,,,,,,,,,,,,,,,,,,,,,,,,,,,,,,,,,,
,,,,,,,,,,,,,,,,,,,,,,,,,,,,,,,,,,
,,,,,,,,,,,,,,,,,,,,,,,,,,,,,,,,,,
,,,,,,,,,,,,,,,,,,,,,,,,,,,,,,,,,,
,,,,,,,,,,,,,,,,,,,,,,,,,,,,,,,,,,
,,,,,,,,,,,,,,,,,,,,,,,,,,,,,,,,,,
,,,,,,,,,,,,,,,,,,,,,,,,,,,,,,,,,,
,,,,,,,,,,,,,,,,,,,,,,,,,,,,,,,,,,
,,,,,,,,,,,,,,,,,,,,,,,,,,,,,,,,,,
,,,,,,,,,,,,,,,,,,,,,,,,,,,,,,,,,,
,,,,,,,,,,,,,,,,,,,,,,,,,,,,,,,,,,
,,,,,,,,,,,,,,,,,,,,,,,,,,,,,,,,,,
,,,,,,,,,,,,,,,,,,,,,,,,,,,,,,,,,,
,,,,,,,,,,,,,,,,,,,,,,,,,,,,,,,,,,
,,,,,,,,,,,,,,,,,,,,,,,,,,,,,,,,,,
,,,,,,,,,,,,,,,,,,,,,,,,,,,,,,,,,,
,,,,,,,,,,,,,,,,,,,,,,,,,,,,,,,,,,
,,,,,,,,,,,,,,,,,,,,,,,,,,,,,,,,,,
,,,,,,,,,,,,,,,,,,,,,,,,,,,,,,,,,,
,,,,,,,,,,,,,,,,,,,,,,,,,,,,,,,,,,
,,,,,,,,,,,,,,,,,,,,,,,,,,,,,,,,,,
,,,,,,,,,,,,,,,,,,,,,,,,,,,,,,,,,,
,,,,,,,,,,,,,,,,,,,,,,,,,,,,,,,,,,
,,,,,,,,,,,,,,,,,,,,,,,,,,,,,,,,,,
,,,,,,,,,,,,,,,,,,,,,,,,,,,,,,,,,,
,,,,,,,,,,,,,,,,,,,,,,,,,,,,,,,,,,
,,,,,,,,,,,,,,,,,,,,,,,,,,,,,,,,,,
,,,,,,,,,,,,,,,,,,,,,,,,,,,,,,,,,,
,,,,,,,,,,,,,,,,,,,,,,,,,,,,,,,,,,
,,,,,,,,,,,,,,,,,,,,,,,,,,,,,,,,,,
,,,,,,,,,,,,,,,,,,,,,,,,,,,,,,,,,,
,,,,,,,,,,,,,,,,,,,,,,,,,,,,,,,,,,
,,,,,,,,,,,,,,,,,,,,,,,,,,,,,,,,,,
,,,,,,,,,,,,,,,,,,,,,,,,,,,,,,,,,,
,,,,,,,,,,,,,,,,,,,,,,,,,,,,,,,,,,
,,,,,,,,,,,,,,,,,,,,,,,,,,,,,,,,,,
,,,,,,,,,,,,,,,,,,,,,,,,,,,,,,,,,,
,,,,,,,,,,,,,,,,,,,,,,,,,,,,,,,,,,
,,,,,,,,,,,,,,,,,,,,,,,,,,,,,,,,,,
,,,,,,,,,,,,,,,,,,,,,,,,,,,,,,,,,,
,,,,,,,,,,,,,,,,,,,,,,,,,,,,,,,,,,
,,,,,,,,,,,,,,,,,,,,,,,,,,,,,,,,,,
,,,,,,,,,,,,,,,,,,,,,,,,,,,,,,,,,,
,,,,,,,,,,,,,,,,,,,,,,,,,,,,,,,,,,
,,,,,,,,,,,,,,,,,,,,,,,,,,,,,,,,,,
,,,,,,,,,,,,,,,,,,,,,,,,,,,,,,,,,,
,,,,,,,,,,,,,,,,,,,,,,,,,,,,,,,,,,
,,,,,,,,,,,,,,,,,,,,,,,,,,,,,,,,,,
,,,,,,,,,,,,,,,,,,,,,,,,,,,,,,,,,,
,,,,,,,,,,,,,,,,,,,,,,,,,,,,,,,,,,
,,,,,,,,,,,,,,,,,,,,,,,,,,,,,,,,,,
,,,,,,,,,,,,,,,,,,,,,,,,,,,,,,,,,,
,,,,,,,,,,,,,,,,,,,,,,,,,,,,,,,,,,
,,,,,,,,,,,,,,,,,,,,,,,,,,,,,,,,,,
,,,,,,,,,,,,,,,,,,,,,,,,,,,,,,,,,,
,,,,,,,,,,,,,,,,,,,,,,,,,,,,,,,,,,
,,,,,,,,,,,,,,,,,,,,,,,,,,,,,,,,,,
,,,,,,,,,,,,,,,,,,,,,,,,,,,,,,,,,,
,,,,,,,,,,,,,,,,,,,,,,,,,,,,,,,,,,
,,,,,,,,,,,,,,,,,,,,,,,,,,,,,,,,,,
,,,,,,,,,,,,,,,,,,,,,,,,,,,,,,,,,,
,,,,,,,,,,,,,,,,,,,,,,,,,,,,,,,,,,
,,,,,,,,,,,,,,,,,,,,,,,,,,,,,,,,,,
,,,,,,,,,,,,,,,,,,,,,,,,,,,,,,,,,,
,,,,,,,,,,,,,,,,,,,,,,,,,,,,,,,,,,
,,,,,,,,,,,,,,,,,,,,,,,,,,,,,,,,,,
,,,,,,,,,,,,,,,,,,,,,,,,,,,,,,,,,,
,,,,,,,,,,,,,,,,,,,,,,,,,,,,,,,,,,
,,,,,,,,,,,,,,,,,,,,,,,,,,,,,,,,,,
,,,,,,,,,,,,,,,,,,,,,,,,,,,,,,,,,,
,,,,,,,,,,,,,,,,,,,,,,,,,,,,,,,,,,
,,,,,,,,,,,,,,,,,,,,,,,,,,,,,,,,,,
,,,,,,,,,,,,,,,,,,,,,,,,,,,,,,,,,,
,,,,,,,,,,,,,,,,,,,,,,,,,,,,,,,,,,
,,,,,,,,,,,,,,,,,,,,,,,,,,,,,,,,,,
,,,,,,,,,,,,,,,,,,,,,,,,,,,,,,,,,,
,,,,,,,,,,,,,,,,,,,,,,,,,,,,,,,,,,
,,,,,,,,,,,,,,,,,,,,,,,,,,,,,,,,,,
,,,,,,,,,,,,,,,,,,,,,,,,,,,,,,,,,,
,,,,,,,,,,,,,,,,,,,,,,,,,,,,,,,,,,
,,,,,,,,,,,,,,,,,,,,,,,,,,,,,,,,,,
,,,,,,,,,,,,,,,,,,,,,,,,,,,,,,,,,,
,,,,,,,,,,,,,,,,,,,,,,,,,,,,,,,,,,
,,,,,,,,,,,,,,,,,,,,,,,,,,,,,,,,,,
,,,,,,,,,,,,,,,,,,,,,,,,,,,,,,,,,,
,,,,,,,,,,,,,,,,,,,,,,,,,,,,,,,,,,
,,,,,,,,,,,,,,,,,,,,,,,,,,,,,,,,,,
,,,,,,,,,,,,,,,,,,,,,,,,,,,,,,,,,,
,,,,,,,,,,,,,,,,,,,,,,,,,,,,,,,,,,
,,,,,,,,,,,,,,,,,,,,,,,,,,,,,,,,,,
,,,,,,,,,,,,,,,,,,,,,,,,,,,,,,,,,,
,,,,,,,,,,,,,,,,,,,,,,,,,,,,,,,,,,
,,,,,,,,,,,,,,,,,,,,,,,,,,,,,,,,,,
,,,,,,,,,,,,,,,,,,,,,,,,,,,,,,,,,,
,,,,,,,,,,,,,,,,,,,,,,,,,,,,,,,,,,
,,,,,,,,,,,,,,,,,,,,,,,,,,,,,,,,,,
,,,,,,,,,,,,,,,,,,,,,,,,,,,,,,,,,,
,,,,,,,,,,,,,,,,,,,,,,,,,,,,,,,,,,
,,,,,,,,,,,,,,,,,,,,,,,,,,,,,,,,,,
,,,,,,,,,,,,,,,,,,,,,,,,,,,,,,,,,,
,,,,,,,,,,,,,,,,,,,,,,,,,,,,,,,,,,
,,,,,,,,,,,,,,,,,,,,,,,,,,,,,,,,,,
,,,,,,,,,,,,,,,,,,,,,,,,,,,,,,,,,,
,,,,,,,,,,,,,,,,,,,,,,,,,,,,,,,,,,
,,,,,,,,,,,,,,,,,,,,,,,,,,,,,,,,,,
,,,,,,,,,,,,,,,,,,,,,,,,,,,,,,,,,,
,,,,,,,,,,,,,,,,,,,,,,,,,,,,,,,,,,
,,,,,,,,,,,,,,,,,,,,,,,,,,,,,,,,,,
,,,,,,,,,,,,,,,,,,,,,,,,,,,,,,,,,,
,,,,,,,,,,,,,,,,,,,,,,,,,,,,,,,,,,
,,,,,,,,,,,,,,,,,,,,,,,,,,,,,,,,,,
,,,,,,,,,,,,,,,,,,,,,,,,,,,,,,,,,,
,,,,,,,,,,,,,,,,,,,,,,,,,,,,,,,,,,
,,,,,,,,,,,,,,,,,,,,,,,,,,,,,,,,,,
,,,,,,,,,,,,,,,,,,,,,,,,,,,,,,,,,,
,,,,,,,,,,,,,,,,,,,,,,,,,,,,,,,,,,
,,,,,,,,,,,,,,,,,,,,,,,,,,,,,,,,,,
,,,,,,,,,,,,,,,,,,,,,,,,,,,,,,,,,,
,,,,,,,,,,,,,,,,,,,,,,,,,,,,,,,,,,
,,,,,,,,,,,,,,,,,,,,,,,,,,,,,,,,,,
,,,,,,,,,,,,,,,,,,,,,,,,,,,,,,,,,,
,,,,,,,,,,,,,,,,,,,,,,,,,,,,,,,,,,
,,,,,,,,,,,,,,,,,,,,,,,,,,,,,,,,,,
,,,,,,,,,,,,,,,,,,,,,,,,,,,,,,,,,,
,,,,,,,,,,,,,,,,,,,,,,,,,,,,,,,,,,
,,,,,,,,,,,,,,,,,,,,,,,,,,,,,,,,,,
,,,,,,,,,,,,,,,,,,,,,,,,,,,,,,,,,,
,,,,,,,,,,,,,,,,,,,,,,,,,,,,,,,,,,
,,,,,,,,,,,,,,,,,,,,,,,,,,,,,,,,,,
,,,,,,,,,,,,,,,,,,,,,,,,,,,,,,,,,,
,,,,,,,,,,,,,,,,,,,,,,,,,,,,,,,,,,
,,,,,,,,,,,,,,,,,,,,,,,,,,,,,,,,,,
,,,,,,,,,,,,,,,,,,,,,,,,,,,,,,,,,,
,,,,,,,,,,,,,,,,,,,,,,,,,,,,,,,,,,
,,,,,,,,,,,,,,,,,,,,,,,,,,,,,,,,,,
,,,,,,,,,,,,,,,,,,,,,,,,,,,,,,,,,,
,,,,,,,,,,,,,,,,,,,,,,,,,,,,,,,,,,
,,,,,,,,,,,,,,,,,,,,,,,,,,,,,,,,,,
,,,,,,,,,,,,,,,,,,,,,,,,,,,,,,,,,,
,,,,,,,,,,,,,,,,,,,,,,,,,,,,,,,,,,
,,,,,,,,,,,,,,,,,,,,,,,,,,,,,,,,,,
,,,,,,,,,,,,,,,,,,,,,,,,,,,,,,,,,,
,,,,,,,,,,,,,,,,,,,,,,,,,,,,,,,,,,
,,,,,,,,,,,,,,,,,,,,,,,,,,,,,,,,,,
,,,,,,,,,,,,,,,,,,,,,,,,,,,,,,,,,,
,,,,,,,,,,,,,,,,,,,,,,,,,,,,,,,,,,
,,,,,,,,,,,,,,,,,,,,,,,,,,,,,,,,,,
,,,,,,,,,,,,,,,,,,,,,,,,,,,,,,,,,,
,,,,,,,,,,,,,,,,,,,,,,,,,,,,,,,,,,
,,,,,,,,,,,,,,,,,,,,,,,,,,,,,,,,,,
,,,,,,,,,,,,,,,,,,,,,,,,,,,,,,,,,,
,,,,,,,,,,,,,,,,,,,,,,,,,,,,,,,,,,
,,,,,,,,,,,,,,,,,,,,,,,,,,,,,,,,,,
,,,,,,,,,,,,,,,,,,,,,,,,,,,,,,,,,,
,,,,,,,,,,,,,,,,,,,,,,,,,,,,,,,,,,
,,,,,,,,,,,,,,,,,,,,,,,,,,,,,,,,,,
,,,,,,,,,,,,,,,,,,,,,,,,,,,,,,,,,,
,,,,,,,,,,,,,,,,,,,,,,,,,,,,,,,,,,
,,,,,,,,,,,,,,,,,,,,,,,,,,,,,,,,,,
,,,,,,,,,,,,,,,,,,,,,,,,,,,,,,,,,,
,,,,,,,,,,,,,,,,,,,,,,,,,,,,,,,,,,
,,,,,,,,,,,,,,,,,,,,,,,,,,,,,,,,,,
,,,,,,,,,,,,,,,,,,,,,,,,,,,,,,,,,,
,,,,,,,,,,,,,,,,,,,,,,,,,,,,,,,,,,
,,,,,,,,,,,,,,,,,,,,,,,,,,,,,,,,,,
,,,,,,,,,,,,,,,,,,,,,,,,,,,,,,,,,,
,,,,,,,,,,,,,,,,,,,,,,,,,,,,,,,,,,
,,,,,,,,,,,,,,,,,,,,,,,,,,,,,,,,,,
,,,,,,,,,,,,,,,,,,,,,,,,,,,,,,,,,,
,,,,,,,,,,,,,,,,,,,,,,,,,,,,,,,,,,
,,,,,,,,,,,,,,,,,,,,,,,,,,,,,,,,,,
,,,,,,,,,,,,,,,,,,,,,,,,,,,,,,,,,,
,,,,,,,,,,,,,,,,,,,,,,,,,,,,,,,,,,
,,,,,,,,,,,,,,,,,,,,,,,,,,,,,,,,,,
,,,,,,,,,,,,,,,,,,,,,,,,,,,,,,,,,,
,,,,,,,,,,,,,,,,,,,,,,,,,,,,,,,,,,
,,,,,,,,,,,,,,,,,,,,,,,,,,,,,,,,,,
,,,,,,,,,,,,,,,,,,,,,,,,,,,,,,,,,,
,,,,,,,,,,,,,,,,,,,,,,,,,,,,,,,,,,
,,,,,,,,,,,,,,,,,,,,,,,,,,,,,,,,,,
,,,,,,,,,,,,,,,,,,,,,,,,,,,,,,,,,,
,,,,,,,,,,,,,,,,,,,,,,,,,,,,,,,,,,
,,,,,,,,,,,,,,,,,,,,,,,,,,,,,,,,,,
,,,,,,,,,,,,,,,,,,,,,,,,,,,,,,,,,,
,,,,,,,,,,,,,,,,,,,,,,,,,,,,,,,,,,
,,,,,,,,,,,,,,,,,,,,,,,,,,,,,,,,,,
,,,,,,,,,,,,,,,,,,,,,,,,,,,,,,,,,,
,,,,,,,,,,,,,,,,,,,,,,,,,,,,,,,,,,
,,,,,,,,,,,,,,,,,,,,,,,,,,,,,,,,,,
,,,,,,,,,,,,,,,,,,,,,,,,,,,,,,,,,,
,,,,,,,,,,,,,,,,,,,,,,,,,,,,,,,,,,
,,,,,,,,,,,,,,,,,,,,,,,,,,,,,,,,,,
,,,,,,,,,,,,,,,,,,,,,,,,,,,,,,,,,,
,,,,,,,,,,,,,,,,,,,,,,,,,,,,,,,,,,
,,,,,,,,,,,,,,,,,,,,,,,,,,,,,,,,,,
,,,,,,,,,,,,,,,,,,,,,,,,,,,,,,,,,,
,,,,,,,,,,,,,,,,,,,,,,,,,,,,,,,,,,
,,,,,,,,,,,,,,,,,,,,,,,,,,,,,,,,,,
,,,,,,,,,,,,,,,,,,,,,,,,,,,,,,,,,,
,,,,,,,,,,,,,,,,,,,,,,,,,,,,,,,,,,
,,,,,,,,,,,,,,,,,,,,,,,,,,,,,,,,,,
,,,,,,,,,,,,,,,,,,,,,,,,,,,,,,,,,,
,,,,,,,,,,,,,,,,,,,,,,,,,,,,,,,,,,
,,,,,,,,,,,,,,,,,,,,,,,,,,,,,,,,,,
,,,,,,,,,,,,,,,,,,,,,,,,,,,,,,,,,,
,,,,,,,,,,,,,,,,,,,,,,,,,,,,,,,,,,
,,,,,,,,,,,,,,,,,,,,,,,,,,,,,,,,,,
,,,,,,,,,,,,,,,,,,,,,,,,,,,,,,,,,,
,,,,,,,,,,,,,,,,,,,,,,,,,,,,,,,,,,
,,,,,,,,,,,,,,,,,,,,,,,,,,,,,,,,,,
,,,,,,,,,,,,,,,,,,,,,,,,,,,,,,,,,,
,,,,,,,,,,,,,,,,,,,,,,,,,,,,,,,,,,
,,,,,,,,,,,,,,,,,,,,,,,,,,,,,,,,,,
,,,,,,,,,,,,,,,,,,,,,,,,,,,,,,,,,,
,,,,,,,,,,,,,,,,,,,,,,,,,,,,,,,,,,
,,,,,,,,,,,,,,,,,,,,,,,,,,,,,,,,,,
,,,,,,,,,,,,,,,,,,,,,,,,,,,,,,,,,,
,,,,,,,,,,,,,,,,,,,,,,,,,,,,,,,,,,
,,,,,,,,,,,,,,,,,,,,,,,,,,,,,,,,,,
,,,,,,,,,,,,,,,,,,,,,,,,,,,,,,,,,,
,,,,,,,,,,,,,,,,,,,,,,,,,,,,,,,,,,
,,,,,,,,,,,,,,,,,,,,,,,,,,,,,,,,,,
,,,,,,,,,,,,,,,,,,,,,,,,,,,,,,,,,,
,,,,,,,,,,,,,,,,,,,,,,,,,,,,,,,,,,
,,,,,,,,,,,,,,,,,,,,,,,,,,,,,,,,,,
,,,,,,,,,,,,,,,,,,,,,,,,,,,,,,,,,,
,,,,,,,,,,,,,,,,,,,,,,,,,,,,,,,,,,
,,,,,,,,,,,,,,,,,,,,,,,,,,,,,,,,,,
,,,,,,,,,,,,,,,,,,,,,,,,,,,,,,,,,,
,,,,,,,,,,,,,,,,,,,,,,,,,,,,,,,,,,
,,,,,,,,,,,,,,,,,,,,,,,,,,,,,,,,,,
,,,,,,,,,,,,,,,,,,,,,,,,,,,,,,,,,,
,,,,,,,,,,,,,,,,,,,,,,,,,,,,,,,,,,
,,,,,,,,,,,,,,,,,,,,,,,,,,,,,,,,,,
,,,,,,,,,,,,,,,,,,,,,,,,,,,,,,,,,,
,,,,,,,,,,,,,,,,,,,,,,,,,,,,,,,,,,
,,,,,,,,,,,,,,,,,,,,,,,,,,,,,,,,,,
,,,,,,,,,,,,,,,,,,,,,,,,,,,,,,,,,,
,,,,,,,,,,,,,,,,,,,,,,,,,,,,,,,,,,
,,,,,,,,,,,,,,,,,,,,,,,,,,,,,,,,,,
,,,,,,,,,,,,,,,,,,,,,,,,,,,,,,,,,,
,,,,,,,,,,,,,,,,,,,,,,,,,,,,,,,,,,
,,,,,,,,,,,,,,,,,,,,,,,,,,,,,,,,,,
,,,,,,,,,,,,,,,,,,,,,,,,,,,,,,,,,,
,,,,,,,,,,,,,,,,,,,,,,,,,,,,,,,,,,
,,,,,,,,,,,,,,,,,,,,,,,,,,,,,,,,,,
,,,,,,,,,,,,,,,,,,,,,,,,,,,,,,,,,,
,,,,,,,,,,,,,,,,,,,,,,,,,,,,,,,,,,
,,,,,,,,,,,,,,,,,,,,,,,,,,,,,,,,,,
,,,,,,,,,,,,,,,,,,,,,,,,,,,,,,,,,,
,,,,,,,,,,,,,,,,,,,,,,,,,,,,,,,,,,
,,,,,,,,,,,,,,,,,,,,,,,,,,,,,,,,,,
,,,,,,,,,,,,,,,,,,,,,,,,,,,,,,,,,,
,,,,,,,,,,,,,,,,,,,,,,,,,,,,,,,,,,
,,,,,,,,,,,,,,,,,,,,,,,,,,,,,,,,,,
,,,,,,,,,,,,,,,,,,,,,,,,,,,,,,,,,,
,,,,,,,,,,,,,,,,,,,,,,,,,,,,,,,,,,
,,,,,,,,,,,,,,,,,,,,,,,,,,,,,,,,,,
,,,,,,,,,,,,,,,,,,,,,,,,,,,,,,,,,,
,,,,,,,,,,,,,,,,,,,,,,,,,,,,,,,,,,
,,,,,,,,,,,,,,,,,,,,,,,,,,,,,,,,,,
,,,,,,,,,,,,,,,,,,,,,,,,,,,,,,,,,,
,,,,,,,,,,,,,,,,,,,,,,,,,,,,,,,,,,
,,,,,,,,,,,,,,,,,,,,,,,,,,,,,,,,,,
,,,,,,,,,,,,,,,,,,,,,,,,,,,,,,,,,,
,,,,,,,,,,,,,,,,,,,,,,,,,,,,,,,,,,
,,,,,,,,,,,,,,,,,,,,,,,,,,,,,,,,,,
,,,,,,,,,,,,,,,,,,,,,,,,,,,,,,,,,,
,,,,,,,,,,,,,,,,,,,,,,,,,,,,,,,,,,
,,,,,,,,,,,,,,,,,,,,,,,,,,,,,,,,,,
,,,,,,,,,,,,,,,,,,,,,,,,,,,,,,,,,,
,,,,,,,,,,,,,,,,,,,,,,,,,,,,,,,,,,
,,,,,,,,,,,,,,,,,,,,,,,,,,,,,,,,,,
,,,,,,,,,,,,,,,,,,,,,,,,,,,,,,,,,,
,,,,,,,,,,,,,,,,,,,,,,,,,,,,,,,,,,
,,,,,,,,,,,,,,,,,,,,,,,,,,,,,,,,,,
,,,,,,,,,,,,,,,,,,,,,,,,,,,,,,,,,,
,,,,,,,,,,,,,,,,,,,,,,,,,,,,,,,,,,
,,,,,,,,,,,,,,,,,,,,,,,,,,,,,,,,,,
,,,,,,,,,,,,,,,,,,,,,,,,,,,,,,,,,,
,,,,,,,,,,,,,,,,,,,,,,,,,,,,,,,,,,
,,,,,,,,,,,,,,,,,,,,,,,,,,,,,,,,,,
,,,,,,,,,,,,,,,,,,,,,,,,,,,,,,,,,,
,,,,,,,,,,,,,,,,,,,,,,,,,,,,,,,,,,
,,,,,,,,,,,,,,,,,,,,,,,,,,,,,,,,,,
,,,,,,,,,,,,,,,,,,,,,,,,,,,,,,,,,,
,,,,,,,,,,,,,,,,,,,,,,,,,,,,,,,,,,
,,,,,,,,,,,,,,,,,,,,,,,,,,,,,,,,,,
,,,,,,,,,,,,,,,,,,,,,,,,,,,,,,,,,,
,,,,,,,,,,,,,,,,,,,,,,,,,,,,,,,,,,
,,,,,,,,,,,,,,,,,,,,,,,,,,,,,,,,,,
,,,,,,,,,,,,,,,,,,,,,,,,,,,,,,,,,,
,,,,,,,,,,,,,,,,,,,,,,,,,,,,,,,,,,
,,,,,,,,,,,,,,,,,,,,,,,,,,,,,,,,,,
,,,,,,,,,,,,,,,,,,,,,,,,,,,,,,,,,,
,,,,,,,,,,,,,,,,,,,,,,,,,,,,,,,,,,
,,,,,,,,,,,,,,,,,,,,,,,,,,,,,,,,,,
,,,,,,,,,,,,,,,,,,,,,,,,,,,,,,,,,,
,,,,,,,,,,,,,,,,,,,,,,,,,,,,,,,,,,
,,,,,,,,,,,,,,,,,,,,,,,,,,,,,,,,,,
,,,,,,,,,,,,,,,,,,,,,,,,,,,,,,,,,,
,,,,,,,,,,,,,,,,,,,,,,,,,,,,,,,,,,
,,,,,,,,,,,,,,,,,,,,,,,,,,,,,,,,,,
,,,,,,,,,,,,,,,,,,,,,,,,,,,,,,,,,,
